"JASID","LGC","Site_no","SiteName_furigana","SiteName_original","Address","Chronology","SiteType","ArchaeologicalFeatures","MajorArtefacts","Lon","Lat","K"
13101000800,13101,"8","うしがふちかいづか","牛ヶ淵貝塚","千代田区 九段南一丁目","[縄文時代（中期）][弥生時代][古墳時代][奈良時代][平安時代]","貝塚","","縄文土器　弥生土器　土師器",139.7510672,35.69479204,TRUE
13101002200,13101,"22","とうきょうこくりつきんだいびじゅつかんいせき","東京国立近代美術館遺跡","千代田区 北の丸公園","[旧石器時代][縄文時代（早期〜後期）][弥生時代][古墳時代][中世][近世]","集落・城館","[旧石器時代]礫群　[縄文時代][弥生時代][古墳時代]住居　[中世]井戸　土坑群　地下式土坑　溝状遺構　堀　[近世]井戸　石組遺構","縄文土器　弥生土器　土製勾玉　土師器　須恵器　砥石　土錘　石製カ帯　石製模造品　陶磁器　カワラケ　瓦　鉄鏃　板碑　ガラス製品　焼塩壺　銭貨",139.754735,35.69037522,TRUE
13101004100,13101,"41","ひらかわちょういせき","平河町遺跡","千代田区 平河町二丁目","[縄文時代][弥生時代][古墳時代][中世][近世]","包蔵地","[中世]地下式土坑","陶磁器",139.7401839,35.67928786,TRUE
13101006000,13101,"60","いいだまちいせき","飯田町遺跡","千代田区 飯田町二丁目　 飯田町三丁目","[縄文時代][古墳時代][奈良時代][平安時代][近世]","包蔵地・屋敷","[近世]屋敷境　地下室　土坑　上水道　石組溝　井戸　庭園","縄文土器　土師器　須恵器　陶磁器　瓦　砥石　硯　漆器　下駄　曲物",139.7498656,35.70120476,TRUE
13101006600,13101,"66","とうきょうえきやえすきたぐちいせき","東京駅八重洲北口遺跡","千代田区 丸の内一丁目","[古墳時代][近世]","包蔵地・屋敷","[近世]建物　石組溝　上水木桶　外堀石垣","陶磁器　瓦　ガラス製品　食器等",139.7696475,35.68278802,TRUE
13102007700,13102,"77","こでんまちょうろうやしきあといせき","小伝馬町牢屋敷跡遺跡","中央区 日本橋小伝馬町","[縄文時代(中期〜晩期)][弥生時代(後期)][古墳時代][奈良時代][平安時代][中世][近世]","屋敷","[近世]土坑　礎石　道路状遺構　建物址　建物基礎　石積・石組　埋桝　石組下水　植栽痕　上水桝　上水木樋　竹","陶磁器　木製品　人骨　瓦類　金属製品　土製品　木製品　銭貨　石製品　骨角貝製品　ガラス製品　動植物遺体　縄文土器　土師器（古墳時代、奈良時代　平安時代）　中世土器・陶器　他",139.7774141,35.6911266,TRUE
13103000500,13103,"5","あかさかごようちないいせき","赤坂御用地内遺跡","港区 元赤坂二丁目","[縄文時代][弥生時代][古墳時代]","包蔵地","","縄文土器　弥生土器　土錘　土師器　黒曜石剥片",139.7275235,35.67749979,TRUE
13103000800,13103,"8","","港区No.8遺跡","港区 赤坂六丁目","[古墳時代]","古墳","","須恵器　刀　管玉",139.7354352,35.66837971,TRUE
13103000900,13103,"9","ながとはぎはんもうりけやしきあといせき","長門萩藩毛利家屋敷跡遺跡","港区 赤坂九丁目","[旧石器時代][縄文時代][古墳時代][近世]","集落・屋敷（大名）","[縄文時代]土坑　[古墳時代]住居　[近世]井戸　土坑　溝","縄文土器　土師器　陶磁器　石器　瓦",139.7304227,35.66606467,TRUE
13103002400,13103,"24","まるやまこふん","丸山古墳","港区 芝公園四丁目","[古墳時代]","古墳","※遺跡範囲のすべてが、都指定史跡芝丸山古墳となっています。 　 前方後円墳","鉄鏃　円筒埴輪　馬歯",139.7479137,35.65494619,TRUE
13103002500,13103,"25","まるやまこふんぐん","丸山古墳群","港区 芝公園四丁目","[古墳時代]","古墳","","",139.7474845,35.65553201,TRUE
13103002501,13103,"25-1","まるやまこふんぐん　いちごうふん","丸山古墳群　1号墳","港区 芝公園四丁目","[古墳時代]","古墳","円墳　[古墳時代]横穴式石室","土師器　須恵器　鉄鏃　鹿角製刀子　刀子　管玉　棗玉　ガラス小玉　大刀　直刀　金環　人骨",139.7474502,35.65461143,TRUE
13103002502,13103,"25-2","まるやまこふんぐん　にごうふん","丸山古墳群　2号墳","港区 芝公園四丁目","[古墳時代]","古墳","円墳","",139.7468494,35.6548625,TRUE
13103002503,13103,"25-3","まるやまこふんぐん　さんごうふん","丸山古墳群　3号墳","港区 芝公園四丁目","[古墳時代]","古墳","円墳","",139.7466262,35.65519726,TRUE
13103002504,13103,"25-4","まるやまこふんぐん　よんごうふん","丸山古墳群　4号墳","港区 芝公園四丁目","[古墳時代]","古墳","円墳　[古墳時代]竪穴式石室?","円筒埴輪　人骨",139.7464889,35.65565755,TRUE
13103002505,13103,"25-5","まるやまこふんぐん　ごごうふん","丸山古墳群　5号墳","港区 芝公園四丁目","[古墳時代]","古墳","円墳　[古墳時代]横穴式石室","須恵器　鉄鏃　刀子　埴輪　玉類　直刀　馬具　人骨",139.7465232,35.65610388,TRUE
13103002506,13103,"25-6","まるやまこふんぐん　ろくごうふん","丸山古墳群　6号墳","港区 芝公園四丁目","[古墳時代]","古墳","円墳　[古墳時代]横穴式石室","須恵器　鉄鏃　管玉　直刀　銅環　鉄環　人骨",139.7468494,35.65646653,TRUE
13103002507,13103,"25-7","まるやまこふんぐん　ななごうふん","丸山古墳群　7号墳","港区 芝公園四丁目","[古墳時代]","古墳","円墳　[古墳時代]横穴式石室","鉄鏃　人物埴輪　直刀　銅環　人骨",139.7473129,35.6563131,TRUE
13103002508,13103,"25-8","まるやまこふんぐん　はちごうふん","丸山古墳群　8号墳","港区 芝公園四丁目","[古墳時代]","古墳","円墳　[古墳時代]横穴式石室","須恵器　埴輪　玉類　刀　槍　人骨",139.7477249,35.65645258,TRUE
13103002509,13103,"25-9","まるやまこふんぐん　きゅうごうふん","丸山古墳群　9号墳","港区 芝公園四丁目","[古墳時代]","古墳","円墳　[古墳時代]横穴式石室","土師器　須恵器　鉄鏃　埴輪　玉類　直刀　銅釧　人骨",139.748051,35.65628521,TRUE
13103002600,13103,"26","","港区No.26遺跡","港区 芝公園四丁目","[古墳時代]","古墳","","",139.7473472,35.65747078,TRUE
13103002800,13103,"28","","港区No.28遺跡","港区 芝公園四丁目","[古墳時代]","横穴墓","","",139.7462486,35.65836343,TRUE
13103002900,13103,"29","こうようかんないかいづかいせき","紅葉館内貝塚遺跡","港区 芝公園四丁目","[縄文時代][弥生時代][古墳時代]","集落・貝塚","住居跡","縄文土器　磨斧　石鏃",139.7454246,35.65865633,TRUE
13103003300,13103,"33","","港区No.33遺跡","港区 麻布台一丁目","[古墳時代]","古墳？","円墳","",139.7406146,35.66122309,TRUE
13103003600,13103,"36","","港区No.36遺跡","港区 六本木六丁目","[古墳時代]","古墳","円墳","",139.7316628,35.66153105,TRUE
13103004900,13103,"49","","港区No.49遺跡","港区 南麻布五丁目","[古墳時代]","古墳","前方後円墳?","",139.724762,35.65140484,TRUE
13103005400,13103,"54","ねこづか（おせんちやま）いせき","猫塚（オセンチ山）遺跡","港区 三田一丁目","[古墳時代]","古墳","円墳","",139.7432998,35.65271046,TRUE
13103005700,13103,"57","かめづかいせき","亀塚遺跡","港区 三田四丁目","[古墳時代]","古墳","※遺跡範囲のすべてが、都指定史跡亀塚となっています。 円墳","土師器　須恵器",139.740881,35.64355127,TRUE
13103006000,13103,"60","いさらごかいづかいせき","伊皿子貝塚遺跡","港区 三田四丁目","[縄文時代（後期）][弥生時代][古墳時代][平安時代][近世]","集落・貝塚・社寺","[縄文時代]住居　土坑　[弥生時代]方形周溝墓　[古墳時代]住居　[平安時代]住居 [近世]礎石　溝状遺構　石垣","縄文土器　弥生土器　土師器　土製品　石製品　貝製品　牛骨　魚骨　陶磁器",139.739954,35.64150056,TRUE
13103006100,13103,"61","","港区No.61遺跡","港区 三田三丁目","[古墳時代]","古墳？","","石棺?",139.7409325,35.64282586,TRUE
13103007100,13103,"71","","港区No.71遺跡","港区 白金台二丁目","[古墳時代]","横穴墓？","","",139.7287446,35.63218105,TRUE
13103007500,13103,"75","みただいまちいせき","三田台町遺跡","港区 三田四丁目","[旧石器時代][縄文時代][弥生時代][古墳時代][奈良時代][平安時代]","集落","[弥生時代]?　住居　[古墳時代]住居","石器　縄文土器　弥生土器　土師器　須恵器",139.7391129,35.64187723,TRUE
13103009900,13103,"99","むつはちのへはんなんぶけやしきあとかそういせき","陸奥八戸藩南部家屋敷跡下層遺跡","港区 六本木一丁目","[縄文時代（前期〜中期）][弥生時代][古墳時代]","集落","[弥生時代]住居　溝","縄文土器　けつ状耳飾　弥生土器　土師器",139.7407608,35.66317679,TRUE
13103010000,13103,"100","","港区No.100遺跡","港区 虎ノ門四丁目","[縄文時代（前期〜後期）][弥生時代][古墳時代][奈良時代][平安時代]","包蔵地","","縄文土器　打斧　磨斧　磨石　弥生土器　土師器　須恵器",139.7431641,35.66505958,TRUE
13103012300,13103,"123","","港区No.123遺跡","港区 高輪二丁目","[古墳時代]","集落","[古墳時代]住居","土器",139.7359715,35.63622708,TRUE
13103013300,13103,"133","おうみやまがみはんいながきけやしきあといせき","近江山上藩稲垣家屋敷跡遺跡","港区 六本木一丁目","[縄文時代（前）][古墳時代][奈良時代][近世]","集落跡　屋敷","[縄文時代]住居跡[古墳時代]住居跡[奈良時代]住居跡[近世]土坑　地下室　井戸　廃棄土坑　上水跡","[縄文時代]土器[古墳時代]土師器[奈良時代]須恵器[近世]陶磁器　土器　瓦",139.74222,35.66511537,TRUE
13103015600,13103,"156","いわみつわのはんかめいけやしきあといせき","石見津和野藩亀井家屋敷跡遺跡","港区 南麻布四丁目","[縄文時代][弥生時代][古墳時代][奈良時代][平安時代][中世][近世]","包蔵地・墳墓・屋敷","土坑　礎石　道路状遺構　大型方形区画　井戸　墳墓","[縄文時代]土器　[中世]陶器　[江]陶磁器　土器　瓦",139.7271824,35.65049816,TRUE
13103015900,13103,"159","みょうげんいんあといせき","妙玄院跡遺跡","港区 高輪三丁目","[弥生時代（後期）][古墳時代][近世]","社寺・集落","土坑　住居跡","[弥生時代]〜[古墳時代]土器　[近世]陶磁器　土器　瓦",139.7308388,35.63159505,TRUE
13103021400,13103,"214","ちくごくるめはんありまけやしきあといせき","筑後久留米藩有馬家屋敷跡遺跡","港区 三田一丁目","[古墳時代][奈良時代][平安時代][近世]","集落・屋敷","[近世]土坑　小穴　等","[近世]陶磁器　瓦等　[古墳時代][奈良時代][平安時代]土師器片",139.7411666,35.65279476,TRUE
13104000200,13104,"2","おちあいいせき","落合遺跡","新宿区 中落合四丁目　 中井一丁目　 中井二丁目","[旧石器時代][縄文時代（早期〜後期）][弥生時代（後期）][古墳時代][奈良時代][平安時代][近世]","包蔵地・集落・屋敷","[旧石器時代]礫群　[縄文時代]竪穴住居　土坑　炉跡　集石　土器焼成坑　ピット　[弥生時代]竪穴住居　掘立柱建物跡　方形周溝墓　[古墳時代]住居　[奈良時代][平安時代]掘立柱建物　竪穴住居跡　土坑　[近世]杭列　焼土　溝状遺構　ピット　[時期不明]建物　住居　ピット　溝","石器　ナイフ形石器　石核　剥片　砕片　縄文土器　打斧　石槍　石鏃　石核　弥生土器　石包丁　土師器　須恵器　鉄製品　陶磁器　刀子　砥石　坏",139.6805457,35.71627471,TRUE
13104000800,13104,"8","かみおちあいにちょうめいせき","上落合二丁目西遺跡","新宿区 上落合二丁目","[古墳時代][平安時代]","集落","[古墳時代]建物跡　[平安時代]住居跡","土師器　土製丸玉　須恵器　土製支脚　鉄器・鉄製品",139.6861762,35.71273451,TRUE
13104001000,13104,"10","とやまがはらうえのだいいせき","戸山ヶ原上ノ台遺跡","新宿区 百人町四丁目　 北新宿四丁目","[旧石器時代][縄文時代（中期〜後期）][弥生時代（後期）][古墳時代][奈良時代][平安時代]","包蔵地・集落","[旧石器時代]集中地点　[縄文時代]竪穴住居跡　土坑　炉穴　集石　ピット　[古墳時代]竪穴住居跡　住居跡　ピット　[近世]土坑　ピット","ナイフ形石器　角錐状石器　リタッチドフレイク　フレイク　チップ　縄文土器　土偶　土製垂飾品　石器　弥生土器　土師器　　灰釉陶器　鉄器　陶磁器類　煙草吸口　銭貨　笄　ガラス瓶類",139.6947029,35.70849936,TRUE
13104001700,13104,"17","いちがやさどはらちょうさんちょうめいせき","市谷砂土原町三丁目遺跡","新宿区 市谷砂土原町三丁目","[縄文時代（前期、中期、後期）][弥生時代（後期）][古墳時代][奈良時代][近世]","包蔵地・集落・屋敷","[近世]ごみ穴 土坑 土取穴 地下室 井戸 植栽痕 溝状遺構 小穴 建物跡 採土坑 井戸跡 厠跡 貝類集中部 石列","磁器 陶器 せっ器 土器 瓦 土製品 金属製品 木製品 骨角製品 ガラス製品 石製品",139.7368646,35.69725793,TRUE
13104001800,13104,"18","うしごめじょうあといせき","牛込城跡","新宿区 袋町 北町 中町 若宮町","[縄文時代][弥生時代（後期）][古墳時代][中世][近世]","集落・城館・屋敷・その他の墓","[弥生時代]住居跡 [近世]地下室 土坑 井戸 甕埋納遺構 小穴 大型土坑 墓 植栽痕 溝状遺構 礎石","磁器 陶器 せっ器 土器 瓦 土製品 金属製品 石製品 貝類 骨角製品 ガラス製品",139.7380147,35.70067335,TRUE
13104003500,13104,"35","みょうしょうじがわNo.1いせき","妙正寺川No.1遺跡","新宿区 西落合二丁目","[旧石器時代][縄文時代（早期〜後期）][弥生時代（後期）][古墳時代][奈良時代][平安時代][中世][近世]","包蔵地","[旧石器時代]礫群　[縄文時代]土坑　[近世]水田址　井戸状遺構","材　縄文土器　石器　木製品　弥生土器　陶器　磁器　埴輪　土製品　石製品　金属製品　土師器",139.6748036,35.72067884,TRUE
13104004300,13104,"43","ひゃくにんちょうさんちょうめいせき","百人町三丁目遺跡","新宿区 百人町二丁目 百人町三丁目 百人町四丁目 大久保三丁目","[旧石器時代][縄文時代（早期・中期〜後期）][弥生時代（後期）][古墳時代][奈良時代][平安時代][近世]","包蔵地・屋敷","[旧石器時代]土坑 [縄文時代]土坑 [奈良時代]ピット [近世]溝 土坑 焼土集中地点 半地下室 土坑 井戸 小穴 溝状遺構 地下室 柱穴 杭穴 胞衣理納遺構・礎石建物跡","石器 礫 縄文土器 石器 弥生土器 土師器 国分寺瓦片 磁器 陶器 土師質土器 金属製品 石製品 動物遺存体 せっ器 近世土器 瓦 土製品 木製品 石製品 自然遺物 ガラス製品 植木鉢 土製品 骨角製品 火縄銃の弾 美濃系陶器志野 内耳付焙烙",139.7008827,35.7061576,TRUE
13104004900,13104,"49","しもとつかいせき","下戸塚遺跡","新宿区 西早稲田一丁目　 西早稲田三丁目","[旧石器時代][縄文時代（草創期〜後期）][弥生時代（後期）][古墳時代][奈良時代][平安時代][中世][近世]","包蔵地・集落・屋敷","[旧石器時代]石器ブロック　礫群　[縄文時代]土坑　集石遺構　土坑　炉穴　陥坑　[弥生時代]竪穴式住居　環壕　方形周溝墓　土坑　[古墳時代]竪穴式住居跡　土坑　方形周溝墓　円墳　[奈良時代]竪穴式住居　土坑　掘立柱建物跡　溝　[中世]掘立柱建物跡　柵列　井戸　地下式坑　土坑　溝　方形周溝状区画溝　[近世]建物跡　柵列　地下室　井戸　土坑　溝状遺構　竪穴状遺構　畝状遺構　ピット","剥片　礫　縄文土器　石器　弥生土器　ガラス製小玉　青銅製品　土製勾玉　蓑玉　炭化米　金属製品　石製有孔円板　滑石製管玉　石製品　鉄製品　ガラス製品　ベンガラ塊　土師器　須恵器　灰釉　緑釉陶器　砥石　土製品　鉄器　墨書土器　磁器　陶器　瓦器　中世土器　埋納銭貨　青磁　土製品　瓦　木製品　近世土器",139.7169465,35.71088671,TRUE
13104006500,13104,"65","たかだのばばさんちょうめいせき","高田馬場三丁目遺跡","新宿区 高田馬場三丁目","[旧石器時代][縄文時代（早期〜後期）][弥生時代（後期）][古墳時代][奈良時代]","包蔵地・集落","[弥生時代]竪穴住居　竪穴住居跡　[古墳時代]竪穴住居跡　[近世]溝　[時期不明]土坑","剥片　砕片　縄文土器　石器　小銅鐸　管状銅製品　ガラス小玉　土師器　鉄製品　青銅製品",139.6956862,35.7132084,TRUE
13104006600,13104,"66","みなみちょういせき","南町遺跡","新宿区 南町 中町 北町 箪笥町","[縄文時代][弥生時代（後期）][古墳時代][近世]","集落・屋敷","[縄文時代]陥し穴 [弥生時代]竪穴住居跡 小穴 [古墳時代]竪穴住居跡 [近世]溝 地割溝 溝状遺構 井戸 地下室 半地下室 礎石 胞衣処理埋納遺構 土坑 小穴 柱穴 生垣 建物跡 段切状遺構","縄文土器 弥生土器 ガラス小玉 炭化米 種子 磁器 陶器 せっ器 近世土器 瓦 土製品 金属製品（銭貨含む） 木製品 骨角製品 ガラス製品 石製品",139.736599,35.69930264,TRUE
13104006800,13104,"68","きたしんじゅくさんちょうめいせき","北新宿三丁目遺跡","新宿区 北新宿三丁目","[旧石器時代][縄文時代（前期〜中期）][弥生時代（後期）][古墳時代][中世][近世]","包蔵地・集落","[弥生時代]竪穴住居跡　[古墳時代]竪穴住居跡　[中世]地下式壙　土坑　小穴　[近世]地下室　土坑　柱穴　溝","石器　尖頭器　石核　剥片　縄文土器　弥生土器　ガラス小玉　炭化米　古墳土器　ガラス小玉　磁器　陶器　せっ器　近世土器　瓦　金属製品",139.689965,35.70440123,TRUE
13104007300,13104,"73","つくどはちまんちょういせき","筑土八幡町遺跡","新宿区 筑土八幡町　 白銀町","[縄文時代（早期〜晩期）][弥生時代（後期）][古墳時代][奈良時代][平安時代][中世][近世]","包蔵地・屋敷","[中世]井戸　土坑　[近世]建物跡　井戸　地下室状遺構　ごみ穴　溝状遺構　杭列　土坑　小穴　柱穴　井戸状遺構　桶埋設遺構　礎石　柱穴列　井戸跡　埋桶　胞衣皿埋納遺構　粘土採掘坑　[江戸時代以前]住居跡　溝状遺構　土坑","縄文土器　石器　弥生土器　土師器　須恵器　板碑　磁器　陶器　せっ器　近世土器　瓦　土製品　金属製品　木製品　骨角製品　ガラス製品　石製品　中世陶磁器",139.739444,35.70358792,TRUE
13104007700,13104,"77","かみおちあいにちょうめいせき","上落合二丁目遺跡","新宿区 上落合一丁目 上落合二丁目","[旧石器時代][縄文時代（前期〜中期）][古墳時代][奈良時代][平安時代]","包蔵地・集落","[古墳時代]竪穴住居跡 [奈良時代]竪穴住居跡 土坑 掘立柱建物跡 埋納土坑 [平安時代]埋納土坑","縄文土器 土師器 ガラス小玉 土師器 須恵器 鉄製品 土製品 石製品 羽口",139.690914,35.71507608,TRUE
13104007900,13104,"79","ひゃくにんちょうさんちょうめにしいせき","百人町三丁目西遺跡","新宿区 百人町三丁目 北新宿四丁目","[旧石器時代][縄文時代（草創期〜後期）][弥生時代（後期）][古墳時代][奈良時代][平安時代][近世]","包蔵地・集落","[旧石器時代]土坑 炉穴 土坑 石器・礫集中 [縄文時代]土坑 陥し穴 ピット [古墳時代]住居跡 井戸 土坑 ピット 掘立柱建物跡 土師器焼成坑 [平安時代]住居跡 土師器焼成坑 掘立柱建物跡 [古墳時代]〜[中世]住居跡・土坑 ピット [近世]畝跡 井戸 土坑 溝 ピット [弥生時代]〜[古墳時代]住居跡","礫 石器 縄文土器 弥生土器 土製品 石製品（砥石） ガラス小玉 土師器 須恵器 古墳土器 土師器 土製品（支脚） 鉄製品（刀子・鏃・鉄錐等） 墨書土器 灰釉陶器 磁器 陶器 近世土器 せっ器 金属製品 土製品 土器（台付甕・台付甕小・甕・壷・高杯）",139.6947029,35.70590669,TRUE
13104008000,13104,"80","にしわせださんちょうめいせき","西早稲田三丁目遺跡","新宿区 西早稲田三丁目 高田馬場二丁目","[旧石器時代][縄文時代（早期〜後期）][弥生時代（後期）][古墳時代][近世]","包蔵地・集落・屋敷","[旧石器時代]石器ブロック 礫群 [縄文時代]集石 集石土坑 住居跡 [弥生時代]竪穴住居跡 [弥生時代][古墳時代]住居跡 掘立柱建物跡 方形周溝墓 溝状遺構 土坑 [古墳時代]住居跡 掘立柱建物跡 土坑 竪穴式住居跡 [近世]地下室 溝状遺構 土坑","石器 礫 縄文土器 弥生土器 ガラス製品 壷棺 鉄釧 土師器 須恵器 土製品 石製品 鉄製品 古墳土器 磁器 陶器 金属製品 骨製品 木製品 せっ器 近世土器",139.7115907,35.71294957,TRUE
13104008500,13104,"85","おわりとくがわけしもやしきあといせき","尾張徳川家下屋敷跡","新宿区 戸山一丁目　 戸山二丁目　 戸山三丁目","[旧石器時代][縄文時代（早期〜後期）][弥生時代（後期）][古墳時代][奈良時代][平安時代][近世]","包蔵地・屋敷","[弥生時代]?[平安時代]畦畔状遺構　木道状遺構　流路跡　[中世][近世]水田跡　丸木橋状遺構　[近世]石組遺構　「御泉水」の土手　溝","石器　縄文土器　土器　須恵器　土師器　磁器　陶器　金属製品　銭貨等　磁器　陶器　金属製品　銭貨　木製品　煙管　板状部材　せっ器　近世土器　瓦",139.7134789,35.7040287,TRUE
13104010100,13104,"101","ぎょうがんじあと","行元寺跡","新宿区 神楽坂五丁目","[旧石器時代][縄文時代（早期〜後期）][弥生時代（後期）][古墳時代][平安時代][中世][近世]","包蔵地・社寺","[旧石器時代]礫群　[縄文時代]遺物集中部　[古墳時代]竪穴住居跡　[平安時代]竪穴住居跡　[中世]地点貝塚　[中世][近世]土壙墓　板碑集中壙　方形区画溝・溝状遺構　建物跡　竹樋　地下室・室状遺構　井戸・井戸状遺構　水溜状遺構　池跡?　ごみ穴　方形土坑　石列　埋桶　埋甕　胞衣埋納遺構　胎児埋葬遺構　イヌ埋葬遺構","石器　礫　縄文土器　石器　弥生土器　土師器　須恵器　磁器　陶器　せっ器　土器　瓦　土製品　金属製品　木製品　骨角製品　ガラス製品　石製品（板碑等）",139.7391693,35.70264002,TRUE
13104010700,13104,"107","きたしんじゅくにちょうめいせき","北新宿二丁目遺跡","新宿区 北新宿一丁目 北新宿二丁目","[旧石器時代][縄文時代（早期〜後期）][弥生時代（後期）][古墳時代]","包蔵地・集落","[旧石器時代]礫群 石器集中部 [縄文時代]炉穴 埋甕 土坑 竪穴住居跡 柱穴 根穴 [弥生時代]竪穴住居跡 炉穴 柱穴 土坑 方形周溝墓 溝跡 住居跡 [弥生〜古墳時代]竪穴住居跡 掘立柱建物跡 [古墳時代]竪穴住居跡 [近世]柱穴","ナイフ形石器 石核 剥片 石器 自然遺物 縄文土器 石器 弥生土器 土製品 石製品（砥石） 銅製品（銅釧） 土師器 磁器 陶器 せっ器 土器 瓦 金属製品 ガラス玉 銭貨",139.6900837,35.70114116,TRUE
13104011500,13104,"115","かしわぎよどばしちょういせき","柏木淀橋町遺跡","新宿区 北新宿二丁目","[縄文時代（前期〜中期）][古墳時代][中世][近世]","包蔵地・その他（町屋）","","",139.6884014,35.69609467,TRUE
13104012700,13104,"127","みなみえのきちょういせき","南榎町遺跡","新宿区 南榎町 弁天町 榎町","[古墳時代][近世]","包蔵地・屋敷・その他(町屋)","[縄文時代]焼土遺構 [近世]大型土坑 方形土坑 円形土坑 小穴 埋桶 地下室 土取穴 ごみ穴 礎石 石組溝 埋甕 埋鉢 石組遺構 掘り抜き井戸 土坑 ピット","（縄文）土器 石器 （弥生） 土器 （古墳時代？）土師器 須恵器 （近世）舶載陶磁器（中国・西洋） 磁器 陶器 せっ器 土器 瓦 土製品 金属製品 木製品 石製品 骨角製品 ガラス製品",139.7288157,35.70307336,TRUE
13104013000,13104,"130","かぐらざかよんちょうめいせき","神楽坂四丁目遺跡","新宿区 神楽坂四丁目","[縄文時代（前期〜中期）][古墳時代][奈良時代][近世]","包蔵地・集落・屋敷","[近世]地下室 井戸 礎石 土坑 柱穴 小穴 [古墳時代]〜[奈良時代]住居跡 溝状遺構","縄文土器 石器 土師器 石製品 磁器 陶器 せっ器 近世土器 瓦 土製品 金属製品 ガラス製品 骨角製品",139.7401134,35.70244486,TRUE
13104013800,13104,"138","しろがねちょうにしいせき","白銀町西遺跡","新宿区 白銀町 赤城元町","[縄文時代][弥生時代（後期）][古墳時代][奈良時代][中世][近世]","集落・屋敷","[弥生時代]〜[古墳時代]住居跡 溝状遺構 方形周溝墓 土坑 [奈良時代]住居跡 [近世]地下室 土坑 井戸 溝 柱穴 甕棺 蔵骨器","弥生土器 土師器 須恵器 磁器 陶器 せっ器 近世土器 瓦 土製品 金属製品 骨角製品 石製品 古墳土器",139.7374699,35.70457764,TRUE
13104015800,13104,"158","しもおちあいにちょうめいせき","下落合二丁目遺跡","新宿区 下落合二丁目","[旧石器時代][縄文時代][弥生時代][古墳時代]","包蔵地","","",139.7039383,35.71780997,TRUE
13105000100,13105,"1","おおつかいせき","大塚遺跡","文京区 大塚一丁目","[縄文時代][古墳時代][近世]","集落・屋敷","[縄文時代]陥穴　[古墳時代]堅穴住居跡　[近世以降]地下室　大型土坑　土坑　井戸など","（縄文）石鏃・土器　（弥生）土器　（古墳）土師器・須恵器・金属製品　（中世）板碑　（近世以降）陶磁器・土器・瓦・漆器・土製品・石製品・石塔・金属製品・銭貨類",139.7352457,35.7172957,TRUE
13105000200,13105,"2","おおつかこふん","大塚古墳","文京区 大塚一丁目","[古墳時代？]","古墳","円墳?","",139.7344217,35.71637583,TRUE
13105000300,13105,"3","おおつかさんちょうめいせき","大塚三丁目遺跡","文京区 大塚三丁目","[縄文時代][古墳時代][中世][近世]","包蔵地・貝塚?・屋敷・その他（村）","[縄文時代]土坑　[中世]溝　[近世]地下室　井戸　土坑　柱穴列　礎石列など","（縄文）土器・石器　（古墳）土師器・須恵器　（中世）せっ器・土製品・板碑　（近世）陶磁器・せっ器・土器・土製品・瓦・金属製品・石製品など",139.7373743,35.7204176,TRUE
13105000700,13105,"7","こひなたにちょうめひがしいせき","小日向二丁目東遺跡","文京区 小日向二丁目","[旧石器時代][縄文時代][古墳時代][近世]","包蔵地・集落・屋敷","[古墳時代]竪穴建物跡　[近世]地下室・土坑・大型土坑・植栽痕・ピッ","(旧石器)石器　(縄文)土器　打斧　石鏃　(古墳)土師器　(近世)磁器・陶器・炻器・土器・互・土製品・金属製品・石製品・自然遺物",139.7354517,35.71342103,TRUE
13105001100,13105,"11","でんづういんうらかいづか","伝通院裏貝塚","文京区 小石川三丁目","[縄文時代][弥生時代][古墳時代][近世]","包蔵地・集落・貝塚?・社寺・屋敷","[弥生時代]?[古墳時代]堅穴住居跡　土坑　ピット　[近世]地下室　土坑　井戸　溝　焼土集中部　小穴","（縄文〜古代）土器　（古墳）土師器　（近世）陶磁器・せっ器・土器・土製品・瓦・木製品",139.7466784,35.71247324,TRUE
13105001300,13105,"13","あけぼのちょうこふん","曙町古墳","文京区 本駒込一丁目","[古墳時代？]","古墳","円墳","",139.7523089,35.72384597,TRUE
13105001500,13105,"15","ふじじんじゃこふん","富士神社古墳","文京区 本駒込五丁目","[古墳時代]","古墳","前方後円墳？","土師器　埴輪",139.7512446,35.73117605,TRUE
13105001600,13105,"16","かみふじまえちょういせき","上富士前町遺跡","文京区 本駒込五丁目　本駒込六丁目","[縄文時代][弥生時代][古墳時代][奈良時代][平安時代][近世]","包蔵地・集落","[縄文時代]陥穴　[弥生時代]竪穴住居跡　[古墳時代]?[古代]住居跡　[近世]植物痕　土坑　地下室　井戸","縄文土器　弥生土器　瓦　金属器　近世陶磁器",139.7500408,35.73322968,TRUE
13105002000,13105,"20","ごてんまちこふん","御殿町古墳","文京区 白山二丁目","[古墳時代]","古墳","円墳?","",139.7484636,35.71782531,TRUE
13105002300,13105,"23","はくさんじんじゃこふん","白山神社古墳","文京区 白山五丁目","[古墳時代]","古墳","円墳？","",139.7505067,35.72222407,TRUE
13105003700,13105,"37","つばきやまこふん","椿山古墳","文京区 本郷七丁目","[古墳時代]","古墳","","切石",139.7611666,35.71038249,TRUE
13105004700,13105,"47","ほんごうだいいせきぐん","本郷台遺跡群","文京区 本郷五丁目　本郷七丁目　弥生二丁目","[旧石器時代][縄文時代][弥生時代][古墳時代][平安時代][近世]","包蔵地・集落・貝塚・その他の墓・社寺・屋敷・その他（町屋）","[旧石器時代]石器ブロック　礫群　[縄文時代]遺物集中部　陥穴　[古墳時代]住居跡　[平安時代]住居跡　井戸　[近（近世）]地下式坑　建物跡　組石遺構　土坑　溝　庭園址　井戸　道路状遺構など","（旧石器）ナイフ形石器・石核・剥片・石屑　砕片　（縄文）土器・石器　（弥生）土器　（古墳）土師器・土製品・須恵器　（奈良）土師器・須恵器　（平安）土師器・須恵器・灰釉陶器・緑釉陶器・土錘　（近世）陶磁器・土器・瓦・土製品・石製品・金属製品・古銭・骨角製品・動物遺存体・せっ器・瓦器・ガラス製品・木製品",139.7634819,35.71205684,TRUE
13105004800,13105,"48","かすがちょう（こいしかわこうらくえん）いせき","春日町（小石川後楽園）遺跡","文京区 後楽一丁目　 春日一丁目","[旧石器時代][縄文時代][弥生時代][古墳時代][平安時代][近世]","包蔵地・集落・屋敷","[弥生～古墳]竪穴建物跡、土坑、ピット、[近世]井戸、道路、木樋、柱穴、上水道、土坑、屋敷跡、地下室、溝、礎石、植栽痕、[近代]煉瓦基礎、堀、石垣、[近代以降]高射砲陣地関連以降","[旧石器]ナイフ形石器、[縄文]土器、[弥生]土器、石器、[古墳～平安]土師器、須恵器、[近世]磁器、陶器、土器、瓦、木製品、金属製品、ガラス製品、石製品、漆製品、銭貨動物遺存体、[近代]煉瓦",139.7507982,35.70558749,TRUE
13105005100,13105,"51","まさごちょう（まさご）いせき","真砂町（真砂）遺跡","文京区 本郷四丁目","[旧石器時代][縄文時代（早期〜後期）][弥生時代][古墳時代][奈良時代][平安時代][中世][近世]","集落・屋敷","[縄文時代]炉穴　[奈良平安時代]住居跡　柱穴　土坑　[近世]上水道　井戸　地下室","縄文土器　土師器　須恵器　陶磁器類",139.7560167,35.70843107,TRUE
13105005800,13105,"58","ほんごうもとまちいせき","本郷元町遺跡","文京区 本郷一丁目","[縄文時代（前期～中期）][弥生時代][古墳時代][奈良時代][平安時代][中世][近世]","包蔵地・集落・屋敷","[近世・近代以降]井戸　地下式坑　土坑　柱穴群　礎石群　溝状遺構　下水施設　池　レンガ遺構　互列遺構　[近世以降]桶　土坑　溝　礎石など　[近世]地下式坑","(旧石器)ナイフ形石器など　(縄文)土器　石器　(弥生)扁平片刃石斧　土器　(古墳)土師器　須恵器　(奈良・平安)土師器　須恵器　(中世)陶器　(近世)磁器　陶器　炻器　土器　互　金属製品　石製品　土製品　木製品　自然遺物　その他",139.7568407,35.70266017,TRUE
13105006900,13105,"69","こひなただいまちいせき","小日向台町遺跡","文京区 小日向二丁目　小日向三丁目","[縄文時代][古墳時代][奈良時代][近世]","包蔵地・集落・社寺","","近世蔵骨器・人骨 （近世）陶磁器・土器",139.7352114,35.71470332,TRUE
13105009100,13105,"91","はらまちひがしいせき","原町東遺跡","文京区 白山五丁目","[弥生時代（後期）][古墳時代][近世]","包蔵地・屋敷","竪穴式住居跡","弥生式土器　土師器　近世陶磁器",139.7488931,35.72280939,TRUE
13105010300,13105,"103","ほんごういっちょうめみなみいせき","本郷一丁目南遺跡","文京区 本郷一丁目","[旧石器時代][縄文時代][弥生時代][古墳時代][奈良時代][平安時代][近世]","包蔵地・集落・屋敷","[縄文時代]住居　[弥生時代]住居　[古墳時代]住居　[近世]地下室　溝　井戸","石器　縄文土器　弥生土器　須恵器　土師器　近世陶磁器",139.7564974,35.70341292,TRUE
13105010700,13105,"107","こひなたさんちょうめひがしいせき","小日向三丁目東遺跡","文京区 小日向三丁目","[縄文時代][古墳時代][奈良時代][近世]","包蔵地・集落・屋敷","[縄文時代]柱穴　[古墳時代]住居跡　[奈良時代]住居跡　[近世]大型土坑","土師器　近世陶磁器",139.734024,35.715233,TRUE
13105011300,13105,"113","せんだぎさんちょうめきたいせき","千駄木三丁目北遺跡","文京区 千駄木三丁目","[縄文時代][古墳時代][中世][近世]","包蔵地・集落・屋敷","[縄文時代]土坑　[古墳時代]住居跡　土坑　堅穴状遺構　[近世]地下室　大型土坑　土坑　井戸　溝","（縄文）土器・打製石斧・磨石・石核・剥片　（古墳）土師器　（中世）陶磁器・土器　（近世）陶磁器・土製品・瓦・石製品・銭貨・金属製品・骨角製品・ガラス製品",139.760804,35.72800058,TRUE
13105011500,13105,"115","かすがにちょうめにしいせき","春日二丁目西遺跡","文京区 春日二丁目","[旧石器時代][縄文時代][弥生時代][古墳時代][奈良時代][中世][近世]","包蔵地・集落・屋敷","[旧石器時代]遺物集中部　[縄文時代]炉穴　集石　陥穴　土坑　[弥生時代]土坑　[古墳時代]土坑　[中世]溝　道路状遺構（溝）　土塁状盛土　[近世]谷埋立造成　土手状遺構　溝　砂利敷き　井戸　礎石　礎石跡　地下室　土坑","（旧石器）剥片　（縄文）土器・石製装身具　（弥生）土器　（古墳〜古代）土師器・須恵器　（中世）陶磁器・土器・板碑・銭貨　（近世以降）陶磁器・土器・土製品・金属製品・銭貨・石製品・瓦・ガラス製品",139.7410479,35.71146969,TRUE
13105011800,13105,"118","こひなたいち・にちょうめみなみいせき","小日向一・二丁目南遺跡","文京区 小日向一丁目　小日向二丁目","[縄文時代][古墳時代][奈良時代][平安時代][中世][近世]","包蔵地・集落・その他の墓・社寺・屋敷・その他（町屋）","[古墳時代]堅穴住居跡　炉跡　土坑など　[近世]土坑　甕棺墓　木棺墓　土器棺墓　蔵骨器　直葬墓　便所跡　建物基礎跡　神田上水　盛土","（縄文）土器　（古墳）土師器・須恵器　（古代）土師器・須恵器　（中世）陶器・土器　（近世）陶磁器・人骨・土器・金属製品・木製品・甕棺・墓石・間知石・胴木など",139.739594,35.712051,TRUE
13105012900,13105,"129","こひなたいっちょうめひがしいせき","小日向一丁目東遺跡","文京区 小日向一丁目","［縄文時代］［弥生時代］［古墳時代］［奈良時代］［平安時代］［中世］［近世］","包蔵地・集落・その他の墓・屋敷","［縄文時代］ファイヤーピット?　［弥生時代］?［古墳時代］竪穴住居跡　［奈良時代］［平安時代］竪穴住居跡　土坑　［近世］地下室　溝状遺構　土坑　柱穴","［縄文時代］土器片　［弥生時代］土器片　［奈良時代］［平安時代］土師器　須恵器　石製品　［近世］陶磁器　土器　瓦　石製品　金属製品　土製品　炉器",139.7382326,35.71367191,TRUE
13105013100,13105,"131","こいしかわさんちょうめひがしいせき","小石川三丁目東遺跡","文京区 小石川三丁目","［縄文時代（早期・中期）］［弥生時代］[古墳時代][奈良時代]［近世］","包蔵地・集落・その他の墓・社寺・町家","[古墳?奈良時代]竪穴建物跡 溝 小穴［近世］埋甕 土坑 溝 井戸 植栽痕 小穴 土坑 根石 杭 埋桶 筏地業木組み","［縄文時代］土器　黒曜石剥片　［弥生時代］土器　［奈良時代］［平安時代］土師器 須恵器 土製品　［近世］陶磁器　土器　炉器 瓦 土製品 金属製品",139.7500773,35.71286351,TRUE
13105013400,13105,"134","こひなたいっちょうめきたいせき","小日向一丁目北遺跡","文京区 小日向一丁目","［縄文時代］［古墳時代］［奈良時代］［平安時代］［近世］","包蔵地・屋敷","","［縄文時代］土器片　［古墳］土師器　［古代］土師器　須恵器　［近世］陶磁器　土器　せっ器　瓦　金属製品",139.73734,35.71464756,TRUE
13105013800,13105,"138","こいしかわいっちょうめいせき","小石川一丁目遺跡","文京区 小石川一丁目","[縄文時代][弥生時代][古墳時代][奈良時代][平安時代][中世][近世]","屋敷　その他（水田跡）","[弥生]流路　木組遺構　溝状遺構　[古墳]溝状遺構　土坑　[奈良・平安]溝状遺構　土坑　[中世]流路　溝　水田跡　[近世]土坑　溝状遺構　井戸　上水施設　池跡　ピット　水田跡　区画溝　排水溝","[縄文]土器　[弥生]土器　石器　木製品　加工材　構造物部材　大型植物遺体　[古墳]土師器　木製品　構造物部材　[奈良・平安]土師器　須恵系土師質土器　須恵器　[中世]土器　陶器　[近世]磁器　陶器　炻器　土器　互　土製品　金属製品　木製品(繊維製品)　骨角貝製品　ガラス製品　石製品　自然遺物　土類",139.7524462,35.710494,TRUE
13106000200,13106,"2","てんのうじかいづか","天王寺貝塚","台東区 谷中七丁目","[縄文時代（後期）][古墳時代]","包蔵地・貝塚","","縄文土器　土師器",139.7723925,35.72591381,TRUE
13106000300,13106,"3","すりばちやまこふん","摺鉢山古墳","台東区 上野公園","[古墳時代]","古墳","前方後円墳　近世瓦溜　土杭","古代土器・近世瓦・陶磁器",139.7738078,35.7139363,TRUE
13106000401,13106,"04-1","うえのしのぶがおかいせきぐん","上野忍岡遺跡群","台東区 上野公園　上野二丁目　池之端三丁目","[旧石器時代][縄文時代（早期〜晩期）][弥生時代（後期）][古墳時代][奈良時代][平安時代][中世][近世][近代]","包蔵地・集落・社寺・屋敷・その他の墓・その他（花卉園）","[近世]建物跡　池跡","ナイフ形石器　細石刃　剥片　縄文土器　石器　弥生土器　土師器　須恵器　埴輪　陶器（灰釉）　紡錘車　帯金具　陶磁器　焼塩壺　硯　煙管　木製品　和釘　ガラス製品　瓦塔　瓦　墨書付絹布　簪　笄　数珠玉　小形巻物　甕棺　木棺　墓石　石造物　板碑　人骨",139.7736828,35.71547164,TRUE
13106000405,13106,"04-5","うえのしのぶがおかいせきぐん","上野忍岡遺跡群","台東区 上野桜木一丁目","[旧石器時代][縄文時代][古墳時代][奈良時代][平安時代][中世][近世]","包蔵地・集落・貝塚・社寺","[旧石器時代]〜[中世]礫群　陥穴　ピット群　土杭　貝塚　[近世]地下式土杭　井戸　溝　瓦留　墓杭","縄文〜古代土器　近世陶磁器瓦・石造物　旧石器〜中世礫・縄文土器・土師器・須恵器・陶器・土器　近世陶磁器・土器類・人骨",139.7701043,35.72060734,TRUE
13106000406,13106,"04-6","うえのしのぶがおかいせきぐん","上野忍岡遺跡群","台東区 上野桜木二丁目","[古墳時代][奈良時代][平安時代][中世][近世]","包蔵地・集落・社寺","[古墳時代]住居跡　[近世]土杭","古代土師器　中世陶器　近世陶磁器・瓦",139.7733144,35.72286506,TRUE
13106000407,13106,"04-7","うえのしのぶがおかいせきぐん","上野忍岡遺跡群","台東区 谷中七丁目　上野桜木二丁目","[縄文時代][弥生時代][古墳時代][奈良時代][平安時代][近世]","包蔵地・集落・社寺","[奈良・平安]住居跡　[近世]溝状・道路状遺構　瓦溜　土坑","[縄文・弥生〜古墳]土器　[奈良・平安]土師器、須恵器　[近世]陶磁器、土器、金属製品",139.7724904,35.72336676,TRUE
13106000408,13106,"04-8","うえのしのぶがおかいせきぐん","上野忍岡遺跡群","台東区 上野桜木一丁目","[旧石器時代][縄文時代][弥生時代][古墳時代][奈良時代][平安時代][中世][近世]","包蔵地・集落・社寺","","旧石器時代石器　古墳時代　土師器・石製品（玉類他）　奈良・平安時代　土師器・須恵器　中世陶磁器　近世陶磁器・瓦",139.7754773,35.72326921,TRUE
13106000409,13106,"04-9","うえのしのぶがおかいせきぐん","上野忍岡遺跡群","台東区 上野桜木二丁目","[縄文時代][古墳時代][奈良時代][平安時代][近世]","包蔵地・集落・社寺","[古墳時代]住居跡","縄文土器　古墳土師器　近世陶磁器・瓦・鉄製品",139.7745332,35.72296261,TRUE
13106000411,13106,"04-1","うえのしのぶがおかいせきぐん","上野忍岡遺跡群","台東区 上野桜木一丁目","[古墳時代][奈良時代][平安時代][近世]","包蔵地・集落・社寺","","古代土器　近世土器・陶磁器瓦",139.7719411,35.7207467,TRUE
13106000413,13106,"04-3","うえのしのぶがおかいせきぐん","上野忍岡遺跡群","台東区 上野桜木二丁目","[縄文時代][古墳時代][奈良時代][平安時代][近世]","包蔵地・社寺","[近世]土杭","（古墳時代〜古代）土師器・灰釉陶器　（近世）陶磁器・土器・瓦",139.7742757,35.72312985,TRUE
13106000500,13106,"5","","台東区No.5遺跡","台東区 上野公園","[古墳時代]","古墳","","鉄鏃　鉄刀身　鉄鐔",139.7754214,35.7186193,TRUE
13106000900,13106,"9","とりごえこふん","鳥越古墳","台東区 鳥越二丁目","[古墳時代]","古墳","","土師器　管玉　匂玉　蕨手大刀　銀環",139.7875929,35.70195662,TRUE
13106001300,13106,"13","へびづかこふん","蛇塚古墳","台東区 上野公園","[古墳時代]","古墳","","",139.7739747,35.71767561,TRUE
13106001400,13106,"14","おううんだいこふん","桜雲台古墳","台東区 上野公園","[古墳時代]","古墳","","埴輪",139.7756398,35.71442817,TRUE
13106001900,13106,"19","いけのはたしちけんちょういせき","池之端七軒町遺跡","台東区 池之端二丁目","[縄文時代][弥生時代][古墳時代][近世]","包蔵地・社寺・屋敷","建物基礎　基擴　井戸跡　土坑　井戸　基礎桶　植栽痕　竹桶　埋甕　道跡　地下式坑　井戸跡　溝　包衣　埋納遺講　土蔵址　上水施設　石礎　硬化面　石敷　瓦敷","弥生土器　土師　陶器　磁器　土器　木　金属　石製品　石造物　部材　陶磁器　瓦　土器　木製品　金属製品　石製品　ガラス",139.7670473,35.71425123,TRUE
13106003001,13106,"30-1","やなかまじまちょういせき","谷中真島町遺跡","台東区 谷中二丁目","[縄文時代][古墳時代][奈良時代][平安時代][近世]","集落・屋敷","[古墳時代]住居跡","縄文土器　土師器　近世陶磁器",139.7653994,35.72164668,TRUE
13106003002,13106,"30-2","やなかまじまちょういせき","谷中真島町遺跡","台東区 谷中二丁目","[縄文時代（中期）][古墳時代][奈良時代][平安時代][近世]","包蔵地・屋敷","地下式坑","縄文土器　須恵器　陶磁器　金属製品",139.7664293,35.7212704,TRUE
13106003100,13106,"31","やなかしみずちょういせき","谷中清水町遺跡","台東区 池之端四丁目","[弥生時代][古墳時代][奈良時代][平安時代][近世]","包蔵地・集落・屋敷","[古墳時代]大溝　[近世]土坑　建物跡　柱穴　植栽痕　井戸　待避壕","（古代）土師器・須恵器　（近世）陶磁器",139.7688154,35.7186694,TRUE
13106003202,13106,"32-2","てんのうじいせき","天王寺遺跡","台東区 谷中七丁目","[古墳時代][奈良時代][平安時代][中世][近世]","包蔵地・集落・社寺","[古代]土坑 [近世]地下式坑","古代土師器 近世陶磁器 貝殻 中近世陶磁器",139.7701609,35.72744673,TRUE
13106003203,13106,"32-3","てんのうじいせき","天王寺遺跡","台東区 谷中七丁目","[古墳時代][奈良時代][平安時代][近世]","包蔵地・集落・社寺","","古墳〜平安時代土器　近世陶磁器・瓦・石製品",139.7700235,35.7245899,TRUE
13106003500,13106,"35","かやちょういせき","茅町遺跡","台東区 池之端一丁目","[縄文時代（早期・後～晩期）][弥生時代(後期)][古墳時代][奈良時代][平安時代][近世][近代]","包蔵地・集落・屋敷・その他（邸宅）","[縄文]炉穴、[古墳]貝、廃棄土坑、[平安]住居跡、[近世]石組、井戸跡、溝、地下式坑、[近代]煉瓦基礎","[縄文]土器、石器、[古墳]土師器、須恵器、貝、[近世]陶磁器、土器、瓦、金属、石製品、木製品、[近代]煉瓦、ガラス製品",139.7674765,35.7095401,TRUE
13106003900,13106,"39","やなかさんさきちょういせき","谷中三崎町遺跡","台東区 谷中二丁目　谷中三丁目　谷中四丁目　谷中五丁目　谷中六丁目","[旧石器時代][縄文時代（前期〜中期）][古墳時代][奈良時代][平安時代][近世]","包蔵地・集落・社寺・その他（町屋）","[近世]井戸跡　地下式抗　溝　墓坑地下式抗　[縄文時代]土坑","（旧石器）石器　（縄文）土器　（古墳）土師器　（近世）陶磁器・土器・瓦・木製品・金属製品・ガラス製品・石製品　甕棺・蔵骨器",139.767174,35.72375373,TRUE
13106005300,13106,"53","かみくるまざかちょういせき","上車坂町遺跡","台東区 東上野四丁目","[古墳時代][奈良時代][平安時代][中世][近世]","包蔵地・集落・屋敷","土坑　地下式坑　井戸　溝　池　基礎　木樋　胞衣埋納遺構　埋桶　埋甕　ピット　井戸跡　建物基礎址　礎石　池跡　地業址　木組溝　排水施設","陶磁器　土器　瓦　木製品　金属製品　石製品　ガラス　棟瓦　磁器　陶器　せっ器　骨角製品",139.779439,35.71327509,TRUE
13106006400,13106,"64","とよずみちょういせき","豊住町遺跡","台東区 下谷一丁目","[縄文時代][古墳時代][近世]","包蔵地・社寺・その他（町屋）","土坑　井戸　基礎桶　植栽痕　竹樋　埋甕　道跡　墓坑","縄文土器　石器　陶磁器　墨書木製品　漆器　人骨　位牌　土製　仏像",139.7810062,35.71800054,TRUE
13106006900,13106,"69","こまがたいせき","駒形遺跡","台東区 駒形一丁目","[古墳時代][奈良時代][平安時代][中世][近世]","集落・その他の墓・社寺・その他（町屋）","[古墳時代]〜[中世]住居跡　土坑　埋葬遺構　[近世]遺構　地下式坑　土坑等　溝　建物基礎跡　土坑等　整地跡","（古〜中）土師器・須恵器　陶器・土器　土錘　人骨　（近世）陶磁器　玩具",139.7945967,35.70728152,TRUE
13106007500,13106,"75","かやちょうにちょうめいせき","茅町二丁目遺跡","台東区 池之端一丁目","[縄文時代][弥生時代][古墳時代][奈良時代][平安時代][中世][近世]","包蔵地・社寺・屋敷・その他（町屋）","[近世]土坑　瓦溜　地下式坑　井戸　石組溝　溝　池　埋甕　埋桶　ピット　植栽　石列　敷石","（縄〜中）縄文土器・弥生土器・土師器・中世陶器・板碑等　（近世）陶磁器・土器・瓦・木製品・金属製品・石製品等",139.7676138,35.71128241,TRUE
13106007800,13106,"78","あさくさこまがたにちょうめいせき","浅草駒形二丁目遺跡","台東区 駒形一丁目","[古墳時代][奈良時代][平安時代][近世]","包蔵地・貝塚・社寺・その他（町屋）","[古墳時代]〜[中世]貝塚　土坑・溝・ピット　[近世]遺構","（古〜中）土師器・須恵器　中国製白磁・土器　（近世）陶磁器　玩具",139.7950087,35.70818755,TRUE
13106008100,13106,"81","かみねぎしちょういせき","上根岸町遺跡","台東区 根岸三丁目","[古墳時代][奈良時代][平安時代][近世]","包蔵地・社寺","土坑　溝","古代土師器・須恵器　近世陶磁器",139.780326,35.72298393,TRUE
13106008900,13106,"89","","台東区No.89遺跡","台東区 駒形一丁目","[古墳時代][奈良時代][平安時代][近世]","集落・その他（町屋）","","近世陶磁器　古墳・奈良・平安時代土器",139.7940131,35.70643123,TRUE
13106009900,13106,"99","みなみもとまちいせき","南元町遺跡","台東区 蔵前二丁目","[古墳時代][奈良時代][平安時代][中世][近世][近代]","包蔵地・その他（蔵屋敷・発電所）","[近世]遺構　土坑　土坑（ピット）　瓦溜　石組溝　木組施設　堀？　ピット","（古代）須恵器　（中世）陶器　（近世）陶磁器・土器・瓦・木製品・金属製品・石製品等",139.7921419,35.70293241,TRUE
13106011600,13106,"116","みよしちょういせき","三好町遺跡","台東区 蔵前二丁目","[弥生時代][古墳時代][奈良時代][平安時代][中世][近世]","包蔵地・集落・その他の墓・その他（町屋）","[古墳時代]掘立柱建物　土坑　ピット　[中世]柵列　ピット　土坑　[近世]地下室　土坑　井戸　溝　石組水路　礎石列　ピット","（古）土師器・須恵器・土製品　（中世）陶器・土器・銭　（近世）陶磁器・土器・瓦・土製品・金属製品・木製品・骨角製品・ガラス・石製品・自然遺物等",139.7933607,35.70427062,TRUE
13107000500,13107,"5","","墨田区No.5遺跡","墨田区 横網一丁目","[古墳時代][近世]","包蔵地・その他（幕府御用地）","","土師器",139.7932029,35.69696567,TRUE
13109000800,13109,"8","ごてんやまいせき","御殿山遺跡","品川区 北品川五丁目","[縄文時代（前期）][弥生時代][古墳時代][近世]","包蔵地","[弥生]住居跡、土坑、方形周溝墓、[古墳]住居跡、土坑、炉穴、溝、[近世]地下室、ピット、土坑、井戸、用途不明遺構","[縄文]土器、石器、[弥生]土器、[古墳]土師器、須恵器、[近世]陶磁器、土器、瓦",139.7337182,35.62050855,TRUE
13109001300,13109,"13","せんだいざかいせき","仙台坂遺跡","品川区 東大井四丁目","[縄文時代（後期）][古墳時代][奈良時代][平安時代][近代]","包蔵地・屋敷・その他（工場跡）","[近世]ピット　土坑　石垣","縄文土器　石器　石弾　土錘　石棒　自然遺物　土師器　陶磁器　瓦　土製品　土錘　鉄製品　煙管　銭貨　ガラス製品　蝋石　獣骨",139.7403673,35.60697621,TRUE
13109001400,13109,"14","さいこうじかいづか","西光寺貝塚","品川区 大井四丁目","[縄文時代（中期〜後期）][古墳時代]","貝塚・包蔵地","","縄文土器　打斧　須恵器",139.7328131,35.60031371,TRUE
13109001500,13109,"15","おおいかしまいせき","大井鹿島遺跡","品川区 大井五丁目","[縄文時代][古墳時代][奈良時代][近世]","包蔵地・集落","[古墳時代][奈良時代]竪穴式住居跡　[近世]土坑　室状遺構","縄文土器　土師器　須恵器　陶磁器　紡錘車　土錘　釘　煙管　銭貨",139.7301397,35.59667274,TRUE
13109001800,13109,"18","","品川区No.18遺跡","品川区 南品川五丁目","[古墳時代]","古墳","","須恵器　円筒埴輪　人物埴輪",139.7416467,35.60782891,TRUE
13109001900,13109,"19","おおいはやしちょうこふん","大井林町古墳","品川区 東大井四丁目","[古墳時代]","古墳","円墳","",139.7411009,35.60679337,TRUE
13109002000,13109,"20","おおいこうえんないこふん","大井公園内古墳","品川区 東大井四丁目","[古墳時代]","古墳","円墳","円筒埴輪",139.7409449,35.60532457,TRUE
13109002400,13109,"24","おおいかねこやまおうけつぼぐん","大井金子山横穴墓群","品川区 西大井四丁目","[古墳時代][奈良時代]","横穴墓","横穴墓（古墳〜奈良２基）","鉄鏃　刀子　人骨",139.7205441,35.59394495,TRUE
13109003000,13109,"30","みつぎいせき","三木遺跡","品川区 西品川三丁目","[縄文時代（早期〜後期）][古墳時代]","包蔵地","溝状遺構　ピット","縄文土器　石器　土師器",139.7289666,35.61491723,TRUE
13110000300,13110,"3","ひかわいせき","氷川遺跡","目黒区 大橋二丁目","［旧石器時代］[縄文時代（早期〜後期）][弥生時代（前期〜後期）][古墳時代][奈良時代][平安時代][中世][近世]［近代］","集落 その他（軍施設）","[縄文時代]土坑　小穴　炉穴　陥穴　[弥生時代〜古墳時代]竪穴住居跡　堀立柱建物跡　土坑　小穴　[平安時代]火葬墓　溝　[近世]溝　土坑　小穴　［近代］煉瓦構造物","縄文土器　剥片　打製石斧　石鏃　スタンプ形石器　磨石　石皿　弥生土器　弥生時代末〜古墳時代初期土器　金属製品　土製品　奈良時代須恵器　平安時代土器　瓦　板状鉄製品　中近世陶磁器　釘　鎹　銭貨　近代陶磁器　ガラス製品　金属製品　銭貨　?　煉瓦",139.6875316,35.65337917,TRUE
13110000800,13110,"8","ひがしやまかいづかいせき","東山貝塚遺跡","目黒区 東山二丁目　東山三丁目","[旧石器時代][縄文時代（早期〜晩期）][弥生時代（後期）][古墳時代][平安時代][中世][近世][近代]","集落　貝塚　その他（軍施設）","[旧石器時代]礫群　石器ブロック　[縄文時代]竪穴住居跡　土坑　土壙　土器埋設遺構　落し穴　木杭列　植物遺存体集中　小穴　柱穴群　[弥生時代]竪穴住居跡　溝　土坑　[古墳時代]土坑　[中世]溝　[近世]溝　土坑　［近代］地下式遺構　煉瓦構造物　溝","縄文土器　土偶　土製円盤　土器片錘　打製石斧　磨製石斧　弥生土器　古墳時代土器　陶磁器　細石刃　尖頭器　剥片　角錐状石器　削器　石鏃　敲石　石皿　垂飾　掻器　凹石　磨石　砥石　スタンプ形石器　石剣　石錐　石棒　土版　土製勾玉　耳栓　土錘　土玉　弭形角製品　ヤス状刺突具　骨針　浮子 （平安時代）　瓦　（近代）陶磁器　ガラス製品　鉄製品",139.6866739,35.64782322,TRUE
13110001800,13110,"18","おおつかやまこふん","大塚山古墳","目黒区 目黒四丁目","[古墳時代]","古墳","円墳","",139.701523,35.632854,TRUE
13110002500,13110,"25","きつねづかこふん","狐塚古墳","目黒区 碑文谷二丁目","[古墳時代]","古墳","方墳?","",139.6888711,35.62368702,TRUE
13110004700,13110,"47","おおはしいせき","大橋遺跡","目黒区 大橋二丁目","[旧石器時代][縄文時代（草創期〜晩期）][弥生時代（後期）][古墳時代][平安時代][中世][近世][近代]","集落　その他（軍施設）","[旧石器時代]石器集中　礫集中部　[縄文時代]住居　集石　炉穴　土坑　小穴　埋甕　土器敷き遺構　[弥生時代][古墳時代]住居　[平安時代]火葬墓　[中世]土坑　[近世]溝　小穴　[近代]煉瓦構造物","ナイフ形石器　角錐状石器　剥片　礫器　縄文土器　打斧　磨斧　耳栓　有舌尖頭器　石鏃　掻器　石匙　石皿　石棒　磨石　敲石　土製円盤　けつ状耳飾　土偶　弥生土器　陶磁器　銭貨　彫刻刀形石器　管状土錘　土師器　中世土器　瓦　（近世）陶磁器　金属製品　銭貨　(近代)陶磁器　金属製品　ガラス製品　煉瓦",139.684373,35.65446715,TRUE
13111000200,13111,"2","せんげんじんじゃこふん","浅間神社古墳","大田区 田園調布一丁目","[縄文時代][弥生時代（後期）][古墳時代]","古墳・集落","前方後円墳　[縄文時代]炉穴　[弥生時代]住居　炉　柱穴","縄文土器　打斧　剥片　弥生土器　土師器　円筒埴輪　人物埴輪　動物埴輪",139.6687695,35.58743962,TRUE
13111000300,13111,"3","せんげんじんじゃふきんよこあなぼぐん","浅間神社付近横穴墓群","大田区 田園調布一丁目","[古墳時代][奈良時代]","横穴墓","","直刀",139.6688781,35.58691091,TRUE
13111000400,13111,"4","ほうらいこうえんないよこあなぼ","宝来公園内横穴墓","大田区 田園調布三丁目","[古墳時代][奈良時代]","横穴墓","","人骨",139.6639081,35.59491805,TRUE
13111000500,13111,"5","でんえんちょうふはにわこうぼうあと","田園調布埴輪工房址","大田区 田園調布二丁目","[古墳時代]","集落","[古墳時代]住居","土師器　円筒埴輪",139.6704679,35.59703283,TRUE
13111000600,13111,"6","しもぬまべぼじゃくだによこあなぼ","下沼部牡若谷横穴墓","大田区 田園調布二丁目","[古墳時代][奈良時代]","横穴墓","","",139.6685298,35.59304569,TRUE
13111000700,13111,"7","しもぬまべいっぽんぎだによこあなぼ","下沼部一本木谷横穴墓","大田区 田園調布三丁目","[古墳時代][奈良時代]","横穴墓","","",139.6670555,35.59697895,TRUE
13111000800,13111,"8","にしおか19ごうふん","西岡19号墳","大田区 田園調布五丁目","[古墳時代]","古墳","前方後円墳？","直刀",139.6587397,35.59761202,TRUE
13111000900,13111,"9","にしおか20ごうふん","西岡20号墳","大田区 田園調布五丁目","[古墳時代]","古墳","円墳","",139.6578784,35.59596871,TRUE
13111001000,13111,"10","にしおか21ごうふん","西岡21号墳","大田区 田園調布五丁目","[古墳時代]","古墳","円墳","",139.6579115,35.59571279,TRUE
13111001100,13111,"11","にしおか22ごうふん","西岡22号墳","大田区 田園調布五丁目","[古墳時代]","古墳","円墳　[古墳時代]横穴式石室","土器　鉄鏃　刀子　直刀　金環　雲珠",139.6581103,35.59556462,TRUE
13111001200,13111,"12","にしおか23ごうふん","西岡23号墳","大田区 田園調布五丁目","[古墳時代]","古墳","円墳","",139.6582659,35.59544897,TRUE
13111001300,13111,"13","にしおか24ごうふん","西岡24号墳","大田区 田園調布五丁目","[古墳時代]","古墳","円墳","鉄鏃　直刀　銅釧　人骨",139.6586951,35.59520469,TRUE
13111001400,13111,"14","いっぽんまつこふん（にしおか25ごうふん）","一本松古墳(西岡25号墳）","大田区 田園調布五丁目","[古墳時代]","古墳","円墳？","土器",139.660401,35.59766486,TRUE
13111001500,13111,"15","にしおか26ごうふん","西岡26号墳","大田区 田園調布四丁目","[古墳時代]","古墳","円墳","埴輪",139.6602508,35.59732463,TRUE
13111001600,13111,"16","にしおか27ごうふん","西岡27号墳","大田区 田園調布五丁目","[古墳時代]","古墳","円墳","",139.6598109,35.596112,TRUE
13111001700,13111,"17","にしおか28ごうふん","西岡28号墳","大田区 田園調布五丁目","[古墳時代]","古墳","[古墳時代]横穴式石室","鉄鏃　鹿角柄刀子　轡　六鈴鏡　直刀",139.6602231,35.59584821,TRUE
13111001800,13111,"18","にしおか29ごうふん","西岡29号墳","大田区 田園調布五丁目","[古墳時代]","古墳","円墳","土師器",139.6593983,35.59610788,TRUE
13111001900,13111,"19","にしおか30ごうふん","西岡30号墳","大田区 田園調布五丁目","[古墳時代]","古墳","円墳","小刀　管玉　耳環",139.6594643,35.59568898,TRUE
13111002000,13111,"20","にしおか31ごうふん","西岡31号墳","大田区 田園調布五丁目","[古墳時代]","古墳","円墳？","土器　石釧",139.6593099,35.59519127,TRUE
13111002100,13111,"21","にしおか32ごうふん","西岡32号墳","大田区 田園調布五丁目","[古墳時代]","古墳","円墳","土器　円筒埴輪",139.6591834,35.59476115,TRUE
13111002200,13111,"22","にしおか33ごうふん","西岡33号墳","大田区 田園調布四丁目","[古墳時代]","古墳","","土器",139.6606553,35.59527542,TRUE
13111002300,13111,"23","せんげんさまこふん（にしおか34ごうふん）","浅間様古墳(西岡34号墳）","大田区 田園調布四丁目","[古墳時代]","古墳","※遺跡範囲うち、石室部分が大田区指定史跡古墳石室（俗称穴八幡）となっています。 円墳　[古墳時代]横穴式石室","",139.6608623,35.59448064,TRUE
13111002400,13111,"24","にしおか35ごうふん","西岡35号墳","大田区 田園調布四丁目","[古墳時代]","古墳","","円筒埴輪",139.6613682,35.59369521,TRUE
13111002500,13111,"25","かんのんづかこふん（にしおか36ごうふん）","観音塚古墳(西岡36号墳）","大田区 田園調布四丁目","[古墳時代]","古墳","前方後円墳　[古墳時代]横穴式石室","鉄鏃　刀子　円筒埴輪　人物埴輪　玉まき　大刀埴輪　玉類　直刀　鉄環　轡　鐙　木製鐙金具　辻金具　雲珠",139.6625296,35.59444324,TRUE
13111002600,13111,"26","たまがわだいこふんぐん","多摩川台古墳群1〜8号墳","大田区 田園調布一丁目　 田園調布四丁目","[古墳時代]","古墳","1号墳：前方後円墳　径39m　横穴式石室 2号墳：円墳？　礫槨　 3号墳：円墳　径13〜14m　横穴式石室　 4号墳：円墳　径18m　横穴式石室　 5号墳：円墳　径20.1m　横穴式石室　 6号墳：円墳　径20m　横穴式石室　 7号墳：円墳　径18.5m　横穴式石室　 8号墳：円墳　径16m　横穴式石室","1号墳：土師器　須恵器　鉄鏃　円筒埴輪　形象埴輪　 2号墳：勾玉　 3号墳：土師器　須恵器　鉄鏃　直刀　金環　 4号墳：土師器　須恵器　鉄鏃　刀子　埴輪　直刀　轡　 5号墳：鉄鏃　刀子　玉類　直刀　金環　銅環　轡　 7号墳：鉄鏃　大刀　 8号墳：土師器　須恵器　鉄鏃　刀子　玉類　直刀　金環　鉾",139.6653353,35.59098393,TRUE
13111002800,13111,"28","しもぬまべきつねづか1・2ごうふん","下沼部狐塚1・2号墳","大田区 田園調布二丁目","[古墳時代]","古墳","円墳2基","",139.6707426,35.5931476,TRUE
13111003000,13111,"30","いしづかこふん","石塚古墳","大田区 西嶺町","[古墳時代]","古墳","円墳","",139.6774303,35.58177573,TRUE
13111003100,13111,"31","はくさんじんじゃよこあなぼ","白山神社横穴墓","大田区 東嶺町","[古墳時代][奈良時代]","横穴墓","","",139.6833003,35.57892677,TRUE
13111003200,13111,"32","ぞうみょういんないよこあなぼ","増明院内横穴墓","大田区 鵜の木一丁目","[古墳時代][奈良時代]","横穴墓","[古墳時代][奈良時代]切石羨門","鉄刀",139.6870554,35.57543632,TRUE
13111003400,13111,"34","みなみくがはらにちょうめよこあなぼぐん","南久が原二丁目横穴墓群","大田区 南久が原二丁目","[古墳時代][奈良時代]","横穴墓","1基","人骨",139.6849954,35.57589009,TRUE
13111003500,13111,"35","かめのこやまこふん（にしおか46ごうふん）","亀甲山古墳（西岡46号墳）","大田区 田園調布一丁目","[古墳時代]","古墳","※遺跡範囲のすべてが、国指定史跡亀甲山古墳となっています。 　 前方後円墳","",139.6672172,35.58937143,TRUE
13111003600,13111,"36","にしおか47ごうふん","西岡47号墳","大田区 田園調布三丁目","[古墳時代]","古墳","円墳","",139.6673245,35.5914479,TRUE
13111003700,13111,"37","しもぬまべしおみだいよこあなぼぐん","下沼部汐見台横穴墓群","大田区 田園調布三丁目","[古墳時代][奈良時代]","横穴墓","","人骨",139.6665735,35.59169219,TRUE
13111003800,13111,"38","ほうらいさん（ほうらいづか）こふん","宝莱山（蓬莱塚）古墳","大田区 田園調布四丁目","[古墳時代]","古墳","※遺跡範囲のすべてが、都指定史跡宝莱山古墳となっています。 前方後円墳　[古墳時代]粘土槨","土器　鉄鏃　紡錘車形石製品　管玉　勾玉　丸玉　小玉　四獣鏡　鉄剣",139.6632476,35.59286127,TRUE
13111003900,13111,"39","かみぬまべほうらいよこあなぼぐん","上沼部宝来横穴墓群","大田区 田園調布四丁目","[古墳時代][奈良時代]","横穴墓","","直刀　人骨",139.6622981,35.59404778,TRUE
13111004000,13111,"40","かみぬまべはなのよこあなぼぐん","上沼部花野横穴墓群","大田区 田園調布四丁目","[古墳時代][奈良時代]","横穴墓","","",139.6616543,35.59408267,TRUE
13111004100,13111,"41","かみぬまべにいのさとよこあなぼぐん","上沼部新居里横穴墓群","大田区 田園調布四丁目","[古墳時代][奈良時代]","横穴墓","","",139.6619011,35.59460613,TRUE
13111004200,13111,"42","かみぬまべふきあげほくぶよこあなぼぐん","上沼部吹上北部横穴墓群","大田区 田園調布五丁目","[古墳時代][奈良時代]","横穴墓","","木製品　人骨",139.6603512,35.59931764,TRUE
13111004300,13111,"43","かみぬまべふきあげなんぶよこあなぼぐん","上沼部吹上南部横穴墓群","大田区 田園調布五丁目","[古墳時代][奈良時代]","横穴墓","","人骨",139.6582484,35.59718903,TRUE
13111004400,13111,"44","かみぬまべ29ばんちよこあなぼ","上沼部29番地横穴墓","大田区 田園調布五丁目","[古墳時代][奈良時代]","横穴墓","","",139.6576046,35.59610725,TRUE
13111004600,13111,"46","でんえんちょうふほんちょう24ばんよこあなぼ","田園調布本町24番横穴墓","大田区 田園調布本町","[古墳時代][奈良時代]","横穴墓","","",139.6745531,35.58391891,TRUE
13111004700,13111,"47","でんえんちょうふほんちょう26ばんよこあなぼ","田園調布本町26番横穴墓","大田区 田園調布本町","[古墳時代][奈良時代]","横穴墓","","人骨",139.6743063,35.5827497,TRUE
13111005000,13111,"50","にしおか49ごうふん","西岡49号墳","大田区 田園調布本町","[古墳時代]","古墳","円墳","",139.6709538,35.58545938,TRUE
13111005100,13111,"51","にしおか50ごうふん","西岡50号墳","大田区 田園調布本町","[古墳時代]","古墳","円墳","",139.6708465,35.58590436,TRUE
13111005200,13111,"52","にしおか51ごうふん","西岡51号墳","大田区 田園調布本町","[古墳時代]","古墳","円墳　[古墳時代]横穴式石室","直刀",139.6716083,35.58488351,TRUE
13111005300,13111,"53","にしおか52ごうふん","西岡52号墳","大田区 田園調布本町","[古墳時代]","古墳","円墳","土師器　鉄鏃　方頭大刀　銀環　人骨",139.6722949,35.5844996,TRUE
13111005400,13111,"54","にしおか53ごうふん","西岡53号墳","大田区 田園調布南","[古墳時代]","古墳","円墳","",139.676801,35.5810443,TRUE
13111005500,13111,"55","にしおか54ごうふん","西岡54号墳","大田区 西嶺町","[古墳時代]","古墳","円墳","",139.6781743,35.58182961,TRUE
13111005600,13111,"56","うのきおおつかこふん","鵜木大塚古墳","大田区 雪谷大塚町","[古墳時代]","古墳","円墳","",139.6771517,35.59133995,TRUE
13111005700,13111,"57","ゆきがやかいづか","雪ヶ谷貝塚","大田区 南雪谷二丁目　 南雪谷三丁目　 南雪谷四丁目　 南雪谷五丁目","[旧石器時代][縄文時代（早期〜前期）][弥生時代（後期）][古墳時代][平安時代]","集落・貝塚・その他の墓","","縄文土器　縄文石器　石鏃　石槍　弥生土器",139.6844687,35.58976951,TRUE
13111006100,13111,"61","みなみまごめいっちょうめよこあなぼぐん","南馬込一丁目横穴墓群","大田区 南馬込一丁目","[古墳時代][奈良時代]","横穴墓","","直刀　人骨",139.7128043,35.59316087,TRUE
13111006400,13111,"64","つかごしよこあなぼぐん","塚越横穴墓群","大田区 南馬込五丁目　 西馬込二丁目　 仲池上一丁目　 仲池上二丁目　 上池台五丁目","[古墳時代][奈良時代]","横穴墓","[古墳時代][奈良時代]切石羨門","鉄鏃　刀子　金銅製頭椎大刀　金銅製圭頭大刀　直刀　轡　杏葉　挂甲小札　人骨",139.7028265,35.58682673,TRUE
13111006800,13111,"68","さんのういっちょうめよこあなぼぐん","山王一丁目横穴墓群","大田区 山王一丁目","[古墳時代][奈良時代]","横穴墓","","人骨",139.7217452,35.59301536,TRUE
13111007100,13111,"71","くまのじんじゃふきんよこあなぼぐん","熊野神社付近横穴墓群","大田区 山王三丁目","[古墳時代][平安時代]","横穴墓","","土師器　須恵器　人骨",139.7208869,35.58397639,TRUE
13111007300,13111,"73","さんのういせき・さんのういせきないよこあなぼぐん","山王遺跡・山王遺跡内横穴墓群","大田区 山王二丁目　 山王三丁目","[弥生時代（中期〜後期）][古墳時代][奈良時代]","集落・貝塚・横穴墓","[弥生時代]環濠　住居　方形周溝墓　[古墳時代]住居　[奈良時代]横穴墓3基　[時期不明]地下式土坑","弥生土器　石器　土師器　須恵器　鉄鏃　刀子　直刀　人骨",139.7252696,35.58752753,TRUE
13111007900,13111,"79","くがはらよんちょうめよこあなぼぐん","久が原四丁目横穴墓群","大田区 久が原四丁目","[古墳時代][奈良時代]","横穴墓","","人骨",139.6921765,35.5802942,TRUE
13111008000,13111,"80","くがはらよこあなぼぐん","久ヶ原横穴墓群","大田区 久が原四丁目　 久が原五丁目　 久が原六丁目　 南久が原一丁目　 千鳥一丁目","[古墳時代][奈良時代]","横穴墓","[古墳時代][奈良時代]組合式石棺　切石羨門","土師器　須恵器　鉄鏃　刀子　管玉　勾玉　丸玉　金環　人骨",139.6937644,35.57514582,TRUE
13111008100,13111,"81","くがはらいせき","久ヶ原遺跡","大田区 久が原四丁目　 久が原五丁目　 久が原六丁目　 千鳥一丁目","[弥生時代（中期〜後期）][古墳時代][中世]","集落","竪穴住居跡","弥生土器　縄文土器　磨斧　軽石製品　土錘　勾玉　獣骨　土師器",139.6939146,35.57641986,TRUE
13111008300,13111,"83","すりばちやまこふん","スリバチ山古墳","大田区 久が原六丁目","[古墳時代]","古墳","円墳","円筒埴輪　人物埴輪",139.6935284,35.57388922,TRUE
13111008600,13111,"86","おおつかこふん","大塚古墳","大田区 千鳥一丁目","[古墳時代]","古墳","円墳","",139.6916401,35.57430809,TRUE
13111008800,13111,"88","ねぎしよこあなぼぐん","根岸横穴墓群","大田区 南久が原一丁目　 千鳥三丁目","[古墳時代][奈良時代]","横穴墓","[古墳時代][奈良時代]横穴墓（切石羨門）","須恵器　切石羨門　人骨",139.6880959,35.5740285,TRUE
13111008900,13111,"89","こうみょうじよこあなぼぐん","光明寺横穴墓群","大田区 鵜の木一丁目","[古墳時代][奈良時代]","横穴墓","3基","土師器　須恵器　刀子　人骨",139.6837453,35.57359218,TRUE
13111009001,13111,"90-1","こうみょうじいせき","光明寺遺跡","大田区 鵜の木一丁目","[旧石器時代][縄文時代（早期）][弥生時代][古墳時代][奈良時代][中世][近世]","集落・その他（墓地）","[旧石器時代]石器集中　礫群　[縄文時代]陥し穴　[弥生時代]住居　方形周溝墓　[中世][近世]竪穴状遺構　墓地　集石土坑　集石","石器　礫　縄文土器　弥生土器　陶磁器　蔵骨器　板碑",139.684314,35.57385397,TRUE
13111009002,13111,"90-2","あらづか１ごうふん","荒塚1号墳","大田区 鵜の木一丁目","[古墳時代]","古墳","円墳","円筒埴輪",139.6841959,35.57387143,TRUE
13111009003,13111,"90-3","あらづか2ごうふん","荒塚2号墳","大田区 鵜の木一丁目","[古墳時代]","古墳","[古墳時代]周溝","円筒埴輪　埴輪棺",139.6839599,35.57381034,TRUE
13111009100,13111,"91","きりがやよこあなぼぐん","桐ヶ谷横穴墓群","大田区 中央五丁目","[古墳時代][奈良時代]","横穴墓","13基　[古墳時代][奈良時代]切石羨門　横穴墓","人骨",139.7125128,35.58064849,TRUE
13111009400,13111,"94","おなづかこふん","女塚古墳","大田区 西蒲田六丁目","[古墳時代]","古墳","円墳","土師器",139.712384,35.56524609,TRUE
13111009600,13111,"96","ひえだじんじゃいせき","ひえ田神社遺跡","大田区 蒲田三丁目","[古墳時代]","包蔵地","","土師器",139.7225711,35.56457408,TRUE
13111009700,13111,"97","ひえだじんじゃけいだいこふん","ひえ田神社境内古墳","大田区 蒲田三丁目","[古墳時代]","古墳","円墳","土師器",139.7225496,35.56436462,TRUE
13111009800,13111,"98","かまたはちまんじんじゃけいだいこふん","蒲田八幡神社境内古墳","大田区 蒲田四丁目","[古墳時代]","古墳","円墳","",139.7224852,35.56057679,TRUE
13111010000,13111,"100","あやめばしふきんいせき","あやめ橋付近遺跡","大田区 蒲田一丁目","[古墳時代]","包蔵地","","土師器　木片　骨片",139.7207472,35.5632824,TRUE
13111010100,13111,"101","やくしづかこふん","薬師塚古墳","大田区 西糀谷三丁目","[古墳時代]","古墳","円墳","土師器　刀",139.7381708,35.55472887,TRUE
13111010600,13111,"106","おおもりみなみこふん","大森南古墳","大田区 大森南一丁目","[古墳時代][中世]","古墳？塚？","円墳","",139.7383679,35.56248294,TRUE
13111010900,13111,"109","かめづかよこあなぼぐん","亀塚横穴墓群","大田区 田園調布一丁目","[古墳時代][奈良時代]","横穴墓","","",139.6674304,35.58826255,TRUE
13111011100,13111,"111","ひがしまごめいっちょうめ2ばんよこあなぼ","東馬込一丁目2番横穴墓","大田区 東馬込一丁目","[古墳時代][奈良時代]","横穴墓","","人骨",139.7139231,35.59992413,TRUE
13111011200,13111,"112","つつみかたごんげんだいこふん","堤方権現台古墳","大田区 池上一丁目","[古墳時代]","古墳","円墳","土器　刀",139.7073986,35.57649601,TRUE
13111011800,13111,"118","にしまごめにちょうめ2ばんよこあなぼ","西馬込二丁目2番横穴墓","大田区 西馬込二丁目","[古墳時代][奈良時代]","横穴墓","","",139.7055335,35.58684706,TRUE
13111012300,13111,"123","にしみねまち33ばんよこあなぼ","西嶺町33番横穴墓","大田区 西嶺町","[古墳時代][奈良時代]","横穴墓","","人骨",139.6772339,35.58187841,TRUE
13111012400,13111,"124","ほんもんじうらよこあなぼぐん","本門寺裏横穴墓群","大田区 池上一丁目　 中央五丁目","[古墳時代][奈良時代]","横穴墓","9基　[古墳時代][奈良時代]切石羨門","人骨",139.7067972,35.58163921,TRUE
13111012500,13111,"125","あらいじゅくよこあなぼぐん","新井宿横穴墓群","大田区 山王四丁目","[古墳時代][奈良時代]","横穴墓","[古墳時代][奈良時代]横穴墓18基","直刀　人骨",139.7218012,35.58782117,TRUE
13111013200,13111,"132","さんのうよこあなぼぐん","山王横穴墓群","大田区 山王一丁目","[古墳時代][奈良時代]","横穴墓","[古墳時代]横穴墓8基","須恵器　土師器　人骨",139.7241028,35.59222927,TRUE
13111013300,13111,"133","でんえんちょうふほんちょう19ばんよこあなぼ","田園調布本町19番横穴墓","大田区 田園調布本町","[古墳時代][奈良時代]","横穴墓","","",139.6749924,35.58523967,TRUE
13111014200,13111,"142","さんのうよんちょうめ33ばんよこあなぼ","山王四丁目33番横穴墓","大田区 山王四丁目","[古墳時代]","横穴墓","","人骨",139.7214961,35.58554219,TRUE
13111014400,13111,"144","たまがわだいこうえんないよこあなぼ","多摩川台公園内横穴墓","大田区 田園調布一丁目","[古墳時代][奈良時代]","横穴墓","","埴輪　人骨",139.6659315,35.58950333,TRUE
13111014500,13111,"145","おうぎづかこふん","扇塚古墳","大田区 田園調布一丁目","[古墳時代]","古墳","円墳","",139.6709204,35.58696438,TRUE
13111014600,13111,"146","きたせんぞくさんちょうめ10ばんよこあなぼ","北千束三丁目10番横穴墓","大田区 北千束三丁目","[古墳時代][奈良時代]","横穴墓","","人骨",139.6886765,35.60609209,TRUE
13111014900,13111,"149","こいけよこあなぼ","小池横穴墓","大田区 上池台一丁目","[古墳時代][奈良時代]","横穴墓","","",139.6969071,35.60115284,TRUE
13111015000,13111,"150","どりこのさかよこあなぼぐん","どりこの坂横穴墓群","大田区 田園調布二丁目","[古墳時代][奈良時代]","横穴墓","2基　[古墳時代][奈良時代]横穴墓","人骨",139.6691194,35.59193157,TRUE
13111015100,13111,"151","ひがしこうじややくしづかこふん","東糀谷薬師塚古墳","大田区 東糀谷一丁目","[古墳時代]","古墳","","土師器　刀",139.7407095,35.55951162,TRUE
13111015200,13111,"152","みなみまごめよんちょうめ27ばんよこあなぼ","南馬込四丁目27番横穴墓","大田区 南馬込四丁目","[古墳時代][奈良時代]","横穴墓","","",139.7137962,35.58605791,TRUE
13111015400,13111,"154","ほうようじうらよこあなぼ","法養寺裏横穴墓","大田区 池上一丁目","[古墳時代][奈良時代]","横穴墓","","",139.707876,35.57802057,TRUE
13111015500,13111,"155","せんげんじんじゃきたこふん","浅間神社北古墳","大田区 田園調布一丁目","[古墳時代]","古墳","円墳","土師器　円筒埴輪",139.6682356,35.58793012,TRUE
13111015600,13111,"156","にしみねこふん","西嶺古墳","大田区 西嶺町","[古墳時代]","古墳","円墳","",139.6779988,35.58063574,TRUE
13111015700,13111,"157","うのきいっちょうめ15ばんこふん","鵜の木一丁目15番古墳","大田区 鵜の木一丁目","[古墳時代]","古墳","円墳","",139.6826498,35.57641237,TRUE
13111015800,13111,"158","みしまづかこふん","三島塚古墳","大田区 鵜の木一丁目","[古墳時代]","古墳","","円筒埴輪　人物埴輪頭部　直刀　耳環",139.6830467,35.57518197,TRUE
13111015900,13111,"159","はちまんじんじゃけいだいこふん","八幡神社境内古墳","大田区 田園調布五丁目","[古墳時代]","古墳","[古墳時代]横穴式石室","",139.6572278,35.59580502,TRUE
13111016000,13111,"160","にしこうじやおおつか","西糀谷大塚","大田区 西糀谷三丁目","[古墳時代]","古墳","円墳","",139.7346606,35.55528909,TRUE
13111016100,13111,"161","ちょうしょうじうらよこあなぼぐん","長勝寺裏横穴墓群","大田区 中央六丁目","[古墳時代][奈良時代]","横穴墓","","",139.7113694,35.5784336,TRUE
13111016700,13111,"167","ひらはりよこあなぼぐん","平張横穴墓群","大田区 南馬込三丁目","[古墳時代][奈良時代]","横穴墓","","人骨",139.718069,35.58562107,TRUE
13111016800,13111,"168","うのきいっちょうめよこあなぼぐん","鵜の木一丁目横穴墓群","大田区 鵜の木一丁目","[古墳時代][奈良時代]","横穴墓","2基　[古墳時代][奈良時代]横穴墓","土師器　須恵器　人骨",139.6814408,35.57724445,TRUE
13111017100,13111,"171","くがはらごちょうめ17ばんよこあなぼ","久が原五丁目17番横穴墓","大田区 久が原五丁目","[古墳時代]","横穴墓","","人骨",139.6985422,35.57698667,TRUE
13111017400,13111,"174","なかまごめさんちょうめ2・11ばんよこあなぼ","中馬込三丁目2・11番横穴墓","大田区 中馬込三丁目","[古墳時代][奈良時代]","横穴墓","","人骨",139.7036202,35.59313895,TRUE
13111017500,13111,"175","さんのうさんちょうめ37ばんよこあなぼ","山王三丁目37番横穴墓","大田区 山王三丁目","[古墳時代][奈良時代]","横穴墓","","人骨",139.723946,35.58572289,TRUE
13111017600,13111,"176","くぼよこあなぼ","久保横穴墓","大田区 南馬込一丁目","[古墳時代][奈良時代]","横穴墓","[古墳時代][奈良時代]横穴墓1基","人骨",139.715143,35.59172559,TRUE
13111017700,13111,"177","かみいけがみよこあなぼ","上池上横穴墓","大田区 上池台五丁目","[古墳時代][奈良時代]","横穴墓","[古墳時代][奈良時代]横穴墓1基","人骨",139.7020967,35.59533746,TRUE
13111017800,13111,"178","おおもりしゃてきばあとよこあなぼぐん","大森射的場跡横穴墓群","大田区 山王二丁目","[古墳時代][奈良時代]","横穴墓","","",139.722665,35.58984764,TRUE
13111017900,13111,"179","もとはっけいえんうらよこあなぼ","元八景園裏横穴墓","大田区 山王二丁目","[古墳時代][奈良時代]","横穴墓","","須恵器　人骨",139.7268606,35.58769639,TRUE
13111018000,13111,"180","さんのうにちょうめ14・24ばんよこあなぼ","山王二丁目14・24番横穴墓","大田区 山王二丁目","[古墳時代][奈良時代]","横穴墓","","須恵器",139.7242232,35.58875384,TRUE
13111018800,13111,"188","しもまるこてんそじんじゃふきんいせき","下丸子天祖神社付近遺跡","大田区 下丸子三丁目","[古墳時代]","包蔵地","","土師器",139.6860559,35.57068351,TRUE
13111020000,13111,"200","きたかまたこふん","北蒲田古墳","大田区 蒲田二丁目","[古墳時代]","古墳","円墳","土器",139.7228069,35.56578356,TRUE
13111020500,13111,"205","おいせづか","お伊勢塚","大田区 新蒲田一丁目","[古墳時代]","古墳","円墳","",139.7093741,35.55668216,TRUE
13111020700,13111,"207","ことりづか","小鳥塚","大田区 西六郷一丁目","[古墳時代]","古墳","円墳","",139.7081295,35.55383667,TRUE
13111020900,13111,"209","てんのうぎこふん","天王木古墳","大田区 西六郷一丁目","[古墳時代]","古墳","円墳","須恵器",139.7060911,35.55200363,TRUE
13111022400,13111,"224","でんえんちょうふいっちょうめ30ばんよこあなぼ","田園調布一丁目30番横穴墓","大田区 田園調布一丁目","[古墳時代][奈良時代]","横穴墓","","",139.6709017,35.58843123,TRUE
13111023000,13111,"230","いなりもりいせき","稲荷森遺跡","大田区 田園調布一丁目","[縄文時代][古墳時代]","包蔵地","溝状遺構　土坑？","縄文土器　土師器　円筒埴輪",139.6724546,35.58897832,TRUE
13111023100,13111,"231","にいのさとよこあなぼぐん","新居里横穴墓群","大田区 田園調布五丁目","[古墳時代][奈良時代]","横穴墓","[古墳時代][奈良時代]横穴墓2基","人骨",139.659344,35.59489354,TRUE
13111023200,13111,"232","どうでらよこあなぼ","堂寺横穴墓","大田区 東馬込一丁目","[古墳時代][奈良時代]","横穴墓","[古墳時代][奈良時代]横穴墓1基","人骨　須恵器",139.712795,35.59553912,TRUE
13111023400,13111,"234","ちょうえいこふん","長栄古墳","大田区 池上一丁目","[古墳時代]","古墳","[古墳時代]周溝","須恵器",139.7065079,35.57819371,TRUE
13111023500,13111,"235","ちゅうおうろくちょうめ4ばんよこあなぼ","中央六丁目4番横穴墓","大田区 中央六丁目","[古墳時代][奈良時代]","横穴墓","[古墳時代][奈良時代]横穴墓1基","人骨",139.7108853,35.57889179,TRUE
13111023600,13111,"236","みなみくがはらにちょうめ4ばんよこあなぼ","南久が原二丁目4番横穴墓","大田区 南久が原二丁目","[古墳時代][奈良時代]","横穴墓","[古墳時代][奈良時代]横穴墓1基","人骨",139.6873466,35.5780418,TRUE
13112000100,13112,"1","からすやまいせき","烏山遺跡","世田谷区 北烏山六丁目　 北烏山七丁目　 北烏山八丁目　 北烏山九丁目","[旧石器時代][縄文時代（早期〜後期）][古墳時代][奈良時代][平安時代][近世]","集落","ピット　陥穴　円形土坑　溝　畝　道路","縄文土器　石器　土師器　石墨　陶磁器　銭貨　煙管",139.59153,35.67412332,TRUE
13112000300,13112,"3","そしがやおおみちきたいせき","祖師谷大道北遺跡","世田谷区 上祖師谷六丁目　上祖師谷七丁目　給田一丁目","[旧石器時代][縄文時代（中期〜後期）][弥生時代（後期）][古墳時代][奈良時代][平安時代][中世][近世]","集落","[旧石器時代]ブロック　[縄文時代]住居　竪穴　[古墳時代]住居　[中世][近世]井戸　地下式土坑　[時期不明]ピット　溝","ナイフ形石器　削器　縄文土器　石器　土師器　鉄鏃　陶器　カワラケ　土師質土器　羽釜　内耳鍋　鉄片　石臼　板碑　漆器　桶",139.596436,35.659981,TRUE
13112000800,13112,"8","きぬたしょうがっこうまえおうけつぼぐん","砧小学校前横穴墓群","世田谷区 成城一丁目","[古墳時代]","横穴墓","","人骨",139.5981209,35.63537324,TRUE
13112000900,13112,"9","きぬたちゅうがっこういせき","砧中学校遺跡","世田谷区 成城一丁目　 成城三丁目","[旧石器時代][縄文時代（早期〜晩期）][弥生時代][古墳時代][平安時代][近世]","集落","[縄文時代]住居址　土坑　集石　ピット　礫群　[弥生時代]住居址　[古墳時代]住居址　古墳周溝　[古（以降）]集石土坑　土坑　ピット　溝　[近世]竪穴　土坑　ピット　溝","（縄文）縄文土器・石器　（弥生）土器、　（古墳）土師器・須恵器・石器・刀子　（近世）陶器",139.6006734,35.63379948,TRUE
13112001002,13112,"10-2","きぬたちゅうがっこうこふんぐん2ごうこふん","砧中学校古墳群2号古墳","世田谷区 成城一丁目","[古墳時代]","古墳","","",139.6026937,35.63488369,TRUE
13112001003,13112,"10-3","きぬたちゅうがっこうこふんぐん3ごうこふん","砧中学校古墳群3号古墳","世田谷区 成城一丁目","[古墳時代]","古墳","円墳　[古墳時代]周溝","",139.6017589,35.6335968,TRUE
13112001004,13112,"10-4","きぬたちゅうがっこうこふんぐん4ごうこふん","砧中学校古墳群4号古墳","世田谷区 成城一丁目","[古墳時代]","古墳","※遺跡範囲のすべてが、世田谷区史跡砧中学校古墳群四号墳 円墳　[古墳時代]周溝　幅5〜10ｍ　深2ｍ","土師器　直刀",139.6018616,35.63283375,TRUE
13112001005,13112,"10-5","きぬたちゅうがっこうこふんぐん5ごうこふん","砧中学校古墳群5号古墳","世田谷区 成城一丁目","[古墳時代]","古墳","方墳","",139.6025804,35.63256549,TRUE
13112001006,13112,"10-6","きぬたちゅうがっこうこふんぐん6ごうこふん","砧中学校古墳群6号古墳","世田谷区 成城一丁目","[古墳時代]","古墳","円墳","土師器　須恵器　直刀　刀子　鉄鏃　耳環　ガラス玉　歯",139.6034605,35.63282779,TRUE
13112001007,13112,"10-7","きぬたちゅうがっこうこふんぐん7ごうこふん","砧中学校古墳群7号古墳","世田谷区 成城一丁目","[古墳時代]","古墳","","",139.6026937,35.63488369,TRUE
13112001008,13112,"10-8","きぬたちゅうがっこうこふんぐん8ごうこふん","砧中学校古墳群8号古墳","世田谷区 成城一丁目","[古墳時代]","古墳","円墳[古墳時代]周溝","土師器　須恵器",139.600336,35.63324509,TRUE
13112001009,13112,"10-9","きぬたちゅうがっこうこふんぐん9ごうふん","砧中学校古墳群9号墳","世田谷区 成城一丁目","[古墳時代]","古墳","古墳周溝","刀子",139.6012895,35.63365045,TRUE
13112001800,13112,"18","しものしんめいいせき","下神明遺跡","世田谷区 成城一丁目　成城三丁目","[旧石器時代][縄文時代（早期・中期〜後期）][弥生時代][古墳時代][奈良時代][平安時代][中世][近世]","集落","[旧石器時代]ブロック　ブロック　礫群　[縄文時代]土坑　ピット　土坑　[古墳時代]住居址　[平安時代]住居址　[近世]溝　土坑　ピット　溝","（旧石器）石器・剥片　（縄文）縄文土器・石器　（古墳）土師器・石器　（平安）土師器・須恵器・砥石　（近世）煙管",139.5990011,35.63509307,TRUE
13112001900,13112,"19","かみのしんめいいせき","上神明遺跡","世田谷区 成城四丁目　 成城五丁目","[旧石器時代][縄文時代（早期〜晩期）][弥生時代][古墳時代][平安時代][中世][近世]","集落","[縄文時代]住居　土坑　[弥生時代][古墳時代]住居　ピット群　方形周溝墓","石器　縄文土器　弥生土器　土師器　須恵器　鉄製品　土製品",139.5923661,35.6414265,TRUE
13112002000,13112,"20","かみのしんめいおうけつぼぐん","上神明横穴墓群","世田谷区 成城四丁目","[古墳時代]","横穴墓","","人骨",139.5921314,35.64018666,TRUE
13112002100,13112,"21","せいじょうがくえんおうけつぼぐん","成城学園横穴墓群","世田谷区 成城六丁目","[古墳時代]","横穴墓","","",139.6011518,35.64216405,TRUE
13112002300,13112,"23","みやのはらいせき","宮之原遺跡","世田谷区 喜多見四丁目","[旧石器時代][縄文時代（早期〜中期）][古墳時代][奈良時代][平安時代][近世]","集落","[縄文時代]集石　[弥生時代]住居　[古墳時代]住居","縄文土器　石器　弥生土器　土師器　須恵器　灰釉陶器　鉄鏃　刀子　鉄製農工具　土師質土器　瓦　砥石　土器片錘　土錘",139.5935426,35.62879711,TRUE
13112002400,13112,"24","てんじんづかこふん","天神塚古墳","世田谷区 喜多見四丁目","[古墳時代]","古墳","円墳　[古墳時代]横穴式石室","",139.5968285,35.62662704,TRUE
13112002500,13112,"25","いなりづかこふん","稲荷塚古墳","世田谷区 喜多見四丁目","[古墳時代]","古墳","※遺跡範囲のすべてが、世田谷区指定史跡稲荷塚古墳となっています。 円墳　[古墳時代]横穴式石室","土師器　須恵器　鉄鏃　刀子　玉類　直刀　圭頭大刀　耳環　骨片",139.5968872,35.6273663,TRUE
13112002600,13112,"26","だいろくてんづかこふん","第六天塚古墳","世田谷区 喜多見四丁目","古墳時代","古墳","円墳　[古墳時代]周溝　墳丘　葺石","円筒埴輪　蔵骨器",139.5967239,35.62605718,TRUE
13112002801,13112,"28-1","けいげんじこふんぐん1ごうふん","慶元寺古墳群1号墳","世田谷区 喜多見四丁目","古墳時代","古墳","円墳　[古墳時代]周溝　葺石","土師器　須恵器　円筒埴輪　直刀",139.5959157,35.62654554,TRUE
13112002802,13112,"28-2","けいげんじこふんぐん2ごうふん","慶元寺古墳群2号墳","世田谷区 喜多見四丁目","古墳時代","古墳","円墳","埴輪",139.5954507,35.62687117,TRUE
13112002803,13112,"28-3","けいげんじこふんぐん3ごうふん","慶元寺古墳群3号墳","世田谷区 喜多見四丁目","古墳時代","古墳","円墳","円筒埴輪",139.5945424,35.62693509,TRUE
13112002804,13112,"28-4","けいげんじこふんぐん4ごうふん","慶元寺古墳群4号墳","世田谷区 喜多見四丁目","古墳時代","古墳","円墳","円筒埴輪　小刀",139.5941561,35.62704558,TRUE
13112002805,13112,"28-5","けいげんじこふんぐん5ごうふん","慶元寺古墳群5号墳","世田谷区 喜多見四丁目","古墳時代","古墳","","円筒埴輪",139.5943922,35.62721415,TRUE
13112002806,13112,"28-6","けいげんじこふんぐん6ごうふん","慶元寺古墳群6号墳","世田谷区 喜多見四丁目","古墳時代","古墳","前方後円墳?","円筒埴輪",139.5941203,35.62743505,TRUE
13112002807,13112,"28-7","けいげんじこふんぐん7ごうふん","慶元寺古墳群7号墳","世田谷区 喜多見四丁目","古墳時代","古墳","[古墳時代]横穴式石室","",139.5941632,35.62727808,TRUE
13112002808,13112,"28-8","けいげんじこふんぐん8ごうふん","慶元寺古墳群8号墳","世田谷区 喜多見四丁目","古墳時代","古墳","","円筒埴輪",139.5929331,35.62763859,TRUE
13112002900,13112,"29","なかのだいせき","中野田遺跡","世田谷区 喜多見八丁目　 喜多見九丁目","[縄文時代（早期〜中期）][古墳時代][奈良時代][平安時代][中世][近世]","集落","[古墳時代]住居　ピット　溝　[奈良時代]掘立柱建物　[平安時代]住居　[中世]竪穴遺構　井戸　土坑　[近世]ピット　土坑　溝","縄文土器　石器　弥生土器　土師器　須恵器　カワラケ　瓦質土器　陶磁器　鉄製品　青銅製品　煙管　木竹製品　板碑　銭貨　枕石　灰釉陶器　土錘　鉱滓",139.5907257,35.63643646,TRUE
13112003000,13112,"30","おおくら","大蔵遺跡","世田谷区 大蔵三丁目　 砧五丁目　 砧七丁目","[縄文時代（早期〜後期）][弥生時代（後期）][古墳時代][奈良時代][平安時代][中世][近世]","集落","[縄文時代]住居址　小竪穴　土坑　配石　[弥生時代][古墳時代]住居址　溝　[時期不明]溝状遺構","縄文土器　石器　土偶　土師器　須恵器　陶磁器　土製品　ガラス製品",139.608383,35.633945,TRUE
13112003100,13112,"31","おおくらだんちおうけつぼぐん","大蔵団地横穴墓群","世田谷区 大蔵三丁目","[古墳時代]","横穴墓","","耳環　人骨",139.6095821,35.63202333,TRUE
13112003200,13112,"32","そうごううんどうじょう","総合運動場遺跡","世田谷区 大蔵三丁目　 大蔵四丁目","[縄文時代（早期〜中期・晩期）][古墳時代]","集落","[縄文時代]住居　集石　土坑　ピット群","縄文土器　石器　土錘　垂飾　土師器　紡錘車　銅釧　米　種子",139.6108034,35.6296297,TRUE
13112003301,13112,"33-1","おおくらこふんぐん1ごうふん","大蔵古墳群1号墳","世田谷区 大蔵四丁目","[古墳時代]","古墳","円墳　[古墳時代]周溝　横穴式石室","須恵器",139.6115471,35.62908311,TRUE
13112003302,13112,"33-2","おおくらこふんぐん2ごうふん","大蔵古墳群2号墳","世田谷区 大蔵四丁目","[古墳時代]","古墳","円墳　[古墳時代]横穴式石室","縄文土器　石器　弥生土器　土師器",139.6122911,35.62878085,TRUE
13112003303,13112,"33-3","おおくらこふんぐん3ごうふん","大蔵古墳群3号墳","世田谷区 大蔵四丁目","[古墳時代]","古墳","円墳　[古墳時代]周溝","縄文土器",139.6120479,35.62908311,TRUE
13112003700,13112,"37","とのやまいせき・おおくらやかたあと","殿山遺跡・大蔵館跡","世田谷区 大蔵五丁目　 大蔵六丁目","[縄文時代（中期）][弥生時代][古墳時代][中世]","集落　城跡","[縄文時代]落し穴　土坑　ピット　[古墳時代]土坑　ピット　[近世]地下式坑　ピット","",139.6083733,35.62732583,TRUE
13112003800,13112,"38","かまたいせき","鎌田遺跡","世田谷区 鎌田三丁目　 鎌田四丁目","[縄文時代（前期）] [古墳時代][奈良時代][平安時代][中世][近世]","集落","","土師器　須恵器　カワラケ　陶磁器　瓦",139.6130779,35.62209475,TRUE
13112003901,13112,"39-1","とのやまこふんぐん1ごうふん","殿山古墳群1号墳","世田谷区 大蔵六丁目","[古墳時代]","古墳","円墳?　[古墳時代]横穴式石室","土師器　鉄鏃　鉄器　刀子　棗玉　ガラス玉　直刀　耳環　鉄環　顔料",139.6095178,35.62616894,TRUE
13112003902,13112,"39-2","とのやまこふんぐん2ごうふん","殿山古墳群2号墳","世田谷区 大蔵六丁目","[古墳時代]","古墳","円墳　[古墳時代]横穴式石室","土師器　鉄片",139.6087096,35.62694796,TRUE
13112003903,13112,"39-3","とのやまこふんぐん3ごうふん","殿山古墳群3号墳","世田谷区 大蔵六丁目","[古墳時代]","古墳","円墳?","土師器",139.6090672,35.62671538,TRUE
13112003904,13112,"39-4","とのやまこふんぐん4ごうふん","殿山古墳群4号墳","世田谷区 大蔵六丁目","[古墳時代]","古墳","","",139.6091315,35.62623871,TRUE
13112003905,13112,"39-5","とのやまこふんぐん5ごうふん","殿山古墳群5号墳","世田谷区 大蔵六丁目","[古墳時代]","古墳","円墳　[古墳時代]横穴式石室","",139.6087525,35.6262503,TRUE
13112003906,13112,"39-6","とのやまこふんぐん6ごうふん","殿山古墳群6号墳","世田谷区 大蔵六丁目","[古墳時代]","古墳","","",139.6084447,35.62630025,TRUE
13112003907,13112,"39-7","とのやまこふんぐん7ごうふん","殿山古墳群7号墳","世田谷区 大蔵六丁目","[古墳時代]","古墳","円墳","直刀",139.6095248,35.6266142,TRUE
13112003908,13112,"39-8","とのやまこふんぐん8ごうふん（たいしょうづか）","殿山古墳群8号墳（大将塚）","世田谷区 大蔵六丁目","[古墳時代]","古墳","円墳","鏃　刀",139.6107479,35.62564907,TRUE
13112003909,13112,"39-9","とのやまこふんぐん9ごうふん","殿山古墳群9号墳","世田谷区 大蔵六丁目","[古墳時代]","古墳","円墳　[古墳時代]横穴式石室?","金銅装圭頭大刀",139.6116795,35.62648051,TRUE
13112004500,13112,"45","にしやとおうけつぼぐん・にしやといせき","西谷戸横穴墓群・西谷戸遺跡","世田谷区 大蔵四丁目　 岡本三丁目","[旧石器時代][古墳時代][奈良時代][平安時代]","集落・横穴墓","[旧石器時代]ブロック　礫群　[古墳時代]33基　[奈良〜平安時代]住居","縄文土器　弥生土器　土師器　須恵器　石器　鉄鏃　直刀　刀子　装飾品（玉類他）",139.611984,35.63039,TRUE
13112004800,13112,"48","うえのだいいせき","上之台遺跡","世田谷区 砧八丁目　 祖師谷三丁目","[旧石器時代][縄文時代（早期〜中期）][弥生時代（後期）][古墳時代][奈良時代][中世]","集落","[縄文時代]住居　集石　集石土坑　土坑　[古墳時代]住居　[時期不明]溝　段状遺溝","石器　縄文土器　石器　焼礫　弥生土器　土師器　須恵器　鉄鏃　鉄製品　青銅製品　泥人形",139.6035552,35.64107284,TRUE
13112004900,13112,"49","おかもとやとおうけつぼぐん","岡本谷戸横穴墓群","世田谷区 岡本一丁目","[古墳時代][奈良時代]","横穴墓","","鉄鏃　刀子　鉄製品　円頭大刀　人骨",139.6171659,35.62774056,TRUE
13112005000,13112,"50","どうがやとおうけつぼぐん","堂ヶ谷戸横穴墓群","世田谷区 岡本二丁目","[古墳時代]","横穴墓","5基以上","",139.6165479,35.62288479,TRUE
13112005100,13112,"51","おかもとはらおうけつぼぐん","岡本原横穴墓群","世田谷区 岡本二丁目","[古墳時代]","横穴墓","5基","",139.6185735,35.62450341,TRUE
13112005200,13112,"52","どうがやといせき","堂ヶ谷戸遺跡","世田谷区 岡本一丁目　 岡本二丁目　 岡本三丁目","[旧石器時代][縄文時代（早期〜晩期）][弥生時代（後期）][古墳時代][奈良時代][平安時代][中世][近世]","集落","[縄文時代]住居　集石　集石土坑　土坑　ピット　[弥生時代][古墳時代][奈良時代][平安時代]住居　竪穴　[近世]溝","石器　縄文土器　弥生土器　土製品　土師器　須恵器　鉄製品　銅鏃　玉類　陶磁器　砥石　煙管",139.6176809,35.62386155,TRUE
13112005400,13112,"54","ふなばしほんむらきたいせき","船橋本村北遺跡","世田谷区 船橋四丁目　 船橋七丁目","[縄文時代（早期〜中期）][古墳時代][奈良時代][平安時代]","集落","[縄文時代]集石　炉穴群　土坑　[奈良時代][平安時代]住居　井戸","縄文土器　石珠　土師器",139.6202631,35.65608546,TRUE
13112006800,13112,"68","えんじょういんいせき","円乗院遺跡","世田谷区 代田二丁目","[縄文時代（早期）][弥生時代（後期）][古墳時代]","集落","[弥生時代]住居 竪穴 [弥生時代][古墳時代]住居 溝","縄文土器 弥生土器 石器 土師器",139.6633,35.65531,TRUE
13112007800,13112,"78","うめがおかおうけつ","梅ヶ丘横穴","世田谷区 代田四丁目","[古墳時代]","横穴墓","1基","ガラス製小玉 人骨",139.6533,35.65788,TRUE
13112008500,13112,"85","たもんやまいせき・みしゅくじょうあと","多聞山遺跡・三宿城跡","世田谷区 三宿二丁目","[縄文時代（早期〜後期）][古墳時代][中世][近世]","集落 城館","[縄文時代]炉 土坑 [古墳時代]住居 [中世]溝","縄文土器 石器 土師器 炭化物",139.6755,35.65216,TRUE
13112008600,13112,"86","さくらぎいせき","桜木遺跡","世田谷区 桜一丁目","[旧石器時代][縄文時代（早期〜後期）][弥生時代（中期）][古墳時代][平安][その他（近代）]","集落","","縄文土器 石器 貝斧",139.6412,35.64488,TRUE
13112010500,13112,"105","せたいせき・せたじょうせき","瀬田遺跡・瀬田城跡","世田谷区 瀬田一丁目 瀬田二丁目","[旧石器時代][縄文時代（早期〜後期）][弥生時代（後期）][古墳時代][奈良時代][平安時代][中世][近世]","集落・城館","[旧石器時代]ブロック 礫群 [縄文時代]住居 土坑 ピット [弥生時代〜古墳時代]住居 [奈良〜平安時代]住居 [近世]ピット 土坑 井戸 溝 配石","石器 縄文土器 石器 礫 けつ状耳飾 弥生土器 土師器 須恵器 陶器 灰釉陶器 土製品 陶磁器",139.6318,35.61599,TRUE
13112010700,13112,"107","しもやまいせき","下山遺跡","世田谷区 瀬田四丁目 瀬田五丁目","[旧石器時代][縄文時代（早期〜晩期）][弥生時代（後期）][古墳時代][奈良時代][平安時代][中世][近世]","集落","[旧石器時代]ブロック 礫群 [縄文時代]住居 集石 炉穴 土坑 ピット [弥生時代]環濠 住居 方形周溝墓 墓壙 甕棺 溝状遺構 [古墳時代]住居 円形周溝墓 [奈良時代][平安時代]住居","ナイフ形石器 尖頭器 礫器 縄文土器 打斧 石鏃 土錘 けつ状耳飾 弥生土器 抉入石斧 石包丁 石皿 土師器 須恵器 土製紡錘車 土製勾玉 ソロバン玉状土製品 石櫃 陶磁器 カワラケ 瓦質土器 煙管 銭貨",139.6244,35.62158,TRUE
13112010800,13112,"108","たまがわじんじゃこふん","玉川神社古墳","世田谷区 瀬田四丁目","[古墳時代]","古墳","円墳","直刀",139.626,35.62008,TRUE
13112010900,13112,"109","たまがわじんじゃひがしおうけつぼぐん","玉川神社東横穴墓群","世田谷区 瀬田四丁目","[古墳時代]","横穴墓","2基","",139.6263,35.61977,TRUE
13112011000,13112,"110","たきがやおうけつぼぐん","滝ヶ谷横穴墓群","世田谷区 瀬田四丁目","[古墳時代]","横穴墓","2基","人骨",139.6284,35.61925,TRUE
13112011200,13112,"112","しもやまきたいせき","下山北遺跡","世田谷区 岡本一丁目","[旧石器時代][縄文時代（早期〜前期）][弥生時代][古墳時代][中世][近世]","集落","[旧石器時代]ブロック [縄文時代]住居 集石 土坑 [弥生時代]住居 溝 [古墳時代]住居 [中世]掘立柱建物 井戸 [近世]建物 門","石器 縄文土器 石器 弥生土器 土師器 ガラス玉",139.6227,35.62252,TRUE
13112011300,13112,"113","たまがわびょういんしたおうけつぼぐん","玉川病院下横穴墓群","世田谷区 瀬田四丁目","[古墳時代]","横穴墓","6基","鉄鏃 刀子 鹿角装刀子 耳環 人骨",139.625,35.62042,TRUE
13112011400,13112,"114","たまがわじんじゃにしおうけつぼ","玉川神社西横穴墓","世田谷区 瀬田四丁目","[古墳時代]","横穴墓","","人骨",139.6257,35.6202,TRUE
13112011500,13112,"115","かみのげいなりづか（にしおか5ごうふん）こふん","上野毛稲荷塚（西岡5号墳）古墳","世田谷区 上野毛二丁目","[古墳時代]","古墳","※遺跡範囲のすべてが、世田谷区指定史跡上野毛稲荷塚古墳となっています。 円墳・前方後円墳 [旧石器時代]ブロック [縄文時代]住居 集石 土坑 [弥生時代]住居 溝 [古墳時代]住居 [中世]掘立柱建物 井戸 [近世]建物 門","直刀",139.6371,35.60871,TRUE
13112011700,13112,"117","かまがやいせき","鎌ヶ谷遺跡","世田谷区 瀬田一丁目","[旧石器時代][縄文時代（早期〜中期）][弥生時代（後期）][古墳時代][奈良時代][平安時代][中世][近世]","集落","[旧石器時代]ブロック 礫群 [縄文時代]土坑 ピット [弥生時代][古墳時代]V字溝 溝状遺構","縄文土器 石器 弥生土器 土師器 須恵器 陶器",139.6336,35.6134,TRUE
13112011800,13112,"118","やがわうえおうけつぼぐん","谷川上横穴墓群","世田谷区 野毛一丁目","[古墳時代]","横穴墓","","人骨",139.6437,35.60312,TRUE
13112011900,13112,"119","てんじんやまこふん","天神山古墳","世田谷区 野毛一丁目","[古墳時代]","古墳","円墳 [古墳時代]周溝","",139.6454,35.60118,TRUE
13112012000,13112,"120","あたごやまおうけつ","あたご山横穴","世田谷区 奥沢一丁目","[古墳時代]","横穴墓","","人骨",139.6785,35.60165,TRUE
13112012100,13112,"121","やがわうえいせき","谷川上遺跡","世田谷区 野毛一丁目","[旧石器時代][縄文時代（中期）][古墳時代][中世][近世]","集落","[縄文時代]住居 ピット [中世][近世]竪穴土坑 溝","縄文土器 石器 土師器 陶磁器",139.6451,35.60425,TRUE
13112012600,13112,"126","しものげきしおうけつぼぐん","下野毛岸横穴墓群","世田谷区 野毛三丁目","[古墳時代][奈良時代]","横穴墓","","須恵器 人骨",139.6397,35.60726,TRUE
13112012700,13112,"127","のげおおつか（にしおか8ごうふん）こふん","野毛大塚(西岡8号墳)古墳","世田谷区 野毛一丁目","[古墳時代]","古墳","※遺跡範囲のすべてが、都指定史跡野毛大塚古墳となっています。 前方後円墳 帆立貝式 [古墳時代]石棺 木棺 粘土槨","土師器 鉄鎌 鉄斧 鉄鏃 刀子 埴輪 玉類 鏡 直刀 鉄剣 鉄矛 銅釧 短甲 頸甲 肩甲 冑 石製模造品 人骨 くし 靫 矢筒",139.6431,35.60508,TRUE
13112012800,13112,"128","すくもづか（にしおか6ごう）こふん","スクモ塚(西岡6号)古墳","世田谷区 野毛三丁目","[古墳時代]","古墳","古墳周溝","縄文土器 土師器 埴輪",139.64,35.60704,TRUE
13112012900,13112,"129","にしおか7ごうふん","西岡7号墳","世田谷区 野毛二丁目","[古墳時代]","古墳","","",139.641,35.60414,TRUE
13112013000,13112,"130","とどろきけいこくおうけつぼぐん","等々力渓谷横穴墓群","世田谷区 等々力一丁目","[古墳時代]","横穴墓群","","土師器 須恵器 刀子 ガラス玉 耳環 人骨",139.6459,35.60491,TRUE
13112013200,13112,"132","にしおか4ごうふん","西岡4号墳","世田谷区 等々力三丁目","[古墳時代]","古墳","円墳","柄鏡",139.6472,35.61179,TRUE
13112013300,13112,"133","にしおか9ごうふん","西岡9号墳","世田谷区 等々力一丁目","[古墳時代]","古墳","円墳","",139.6466,35.60473,TRUE
13112013400,13112,"134","みたけさん（にしおか10ごうふん）こふん","御岳山(西岡10号墳)古墳","世田谷区 等々力一丁目","[古墳時代]","古墳","円墳 [古墳時代]ピット 溝 周溝 粘土槨","土師器 須恵器 埴輪 七鈴鏡 直刀 短甲 円筒埴輪 形象埴輪",139.6479,35.6029,TRUE
13112013500,13112,"135","だいにちづか（にしおか11ごうふん）","大日塚（西岡11号墳）","世田谷区 等々力二丁目","[古墳時代]","古墳","円墳","",139.6497,35.60318,TRUE
13112013600,13112,"136","きつねづか（にしおか12ごうふん）こふん","狐塚(西岡12号墳)古墳","世田谷区 尾山台二丁目","[古墳時代]","古墳","円墳 [古墳時代]葺石 埴輪列","須恵器 埴輪",139.6515,35.60222,TRUE
13112013700,13112,"137","おやまきたはらづか（にしおか13ごうふん）","尾山北原塚（西岡13号墳）","世田谷区 尾山台二丁目","[古墳時代]","古墳","円墳 [古墳時代]古墳周溝","円筒埴輪",139.6533,35.60129,TRUE
13112013800,13112,"138","はちまんづか（にしおか14ごうふん・しんめいづか）こふん","八幡塚(西岡14号墳・神明塚)古墳","世田谷区 尾山台二丁目","[古墳時代][中世]","古墳","円墳","土師器 ヤリガンナ <U+9299>帯金具 刀身 石製模造品 銅鏡 直刀 鉄槍 鉄鏃 ガラス小玉",139.6552,35.60042,TRUE
13112013900,13112,"139","てんぎょうづかこふん","天慶塚古墳","世田谷区 尾山台一丁目","[古墳時代]","古墳","帆立貝ないし造出付円墳 [古墳時代]古墳周溝","鉄鏃 ヤリガンナ 金具 鉄器 匂玉 直刀 <U+9299>帯飾板 石製模造品 経筒 人骨 円筒埴輪 壷形埴輪 土師器 縄文土器 土師質土器",139.6573,35.60068,TRUE
13112014000,13112,"140","にしおか16ごうふん","西岡16号墳","世田谷区 尾山台一丁目","[古墳時代]","古墳","円墳","須恵器",139.6569,35.60042,TRUE
13112014100,13112,"141","にしおか17ごうふん","西岡17号墳","世田谷区 尾山台一丁目","[古墳時代]","古墳","円墳","直刀",139.6566,35.59972,TRUE
13112014500,13112,"145","おくさわだいいせき","奥沢台遺跡","世田谷区 奥沢六丁目 玉川田園調布二丁目","[旧石器時代][縄文時代（前期〜後期）][弥生時代（後期）][古墳時代][近世]","集落","[縄文時代]住居 竪穴 炉 屋外炉 土坑 ピット [弥生時代]住居 [古墳時代]竪穴 [近世]ピット 土坑 井戸 溝","縄文土器 石器 けつ状耳飾 石棒 石製品 土製品 礫 弥生土器 陶磁器",139.6635,35.6037,TRUE
13112014700,13112,"147","にしおかじゅうはちごうふん","西岡18号墳","世田谷区 玉川田園調布一丁目","[古墳時代]","古墳","円墳","直刀",139.6627,35.59994,TRUE
13112015400,13112,"154","せいじょうえきいせき","成城駅遺跡","世田谷区 成城二丁目 成城六丁目","[縄文時代（中期）][古墳時代]","集落","[縄文時代]土坑 [古墳時代]住居址","縄文土器 剥片 土師器",139.5999,35.64037,TRUE
13112015500,13112,"155","ふどうばし・ふどうざかいせき","不動橋・不動坂遺跡","世田谷区 成城三丁目 成城四丁目","[旧石器時代][縄文時代（早期〜後期）][古墳時代]","集落","[古墳時代]住居 [時期不明]集石 焼土 土坑 井戸","石器 縄文土器 石器 土師器",139.5937,35.63851,TRUE
13112015900,13112,"159","きたみじんやいせき","喜多見陣屋遺跡","世田谷区 喜多見一丁目 喜多見三丁目 喜多見四丁目","[旧石器時代][縄文時代（早期〜晩期）][弥生時代（中期〜後期][古墳時代][奈良時代][平安時代][中世][近世]","集落","[旧石器時代]ブロック [縄文時代]住居 炉穴 土坑 [弥生時代]住居 溝 [古墳時代]住居 竪穴 方形周溝墓 周溝 棺 墓壙 [奈良〜平安時代]住居 地下式土坑 [中世〜近世]掘立柱建物 ピット 礎石 土坑 井戸 溝 堀 池","石器 縄文土器 弥生土器 土師器 須恵器 埴輪 臼玉 ガラス玉 灰釉 緑釉 陶磁器 土師質土器 鉄製品 鉄鏃 釘 茶臼 羽口 瓦 板碑 銭貨 胞衣容器 人骨 灰釉陶器 円筒埴輪 土製品 鉱滓",139.5966,35.6261,TRUE
13112016100,13112,"161","なかはらいせき","中原遺跡","世田谷区 代田五丁目","[古墳時代]","包蔵地","","土錘",139.6630523,35.66017714,TRUE
13112016500,13112,"165","おおはらいせき","大原遺跡","世田谷区 野毛三丁目","[縄文時代（前期〜中期）][古墳時代][近世]","集落","","縄文土器 石器 陶器",139.6380122,35.60631337,TRUE
13112016800,13112,"168","しものげねいせき","下野毛根遺跡","世田谷区 野毛一丁目 野毛二丁目","[縄文時代（前期〜後期）][古墳時代][中世][近世]","集落","[縄文時代]屋外炉 土坑 ピット [古墳時代]周溝 [中世][近世]土坑 溝","縄文土器 石器 土師器 埴輪 土師質土器 玉類（水晶製切子玉、ガラス製小玉） 人骨",139.6426511,35.6016517,TRUE
13112018800,13112,"188","なかのしまいせき","中の島遺跡","世田谷区 成城四丁目","[縄文時代][古墳時代][中世]","集落","","縄文土器 土師器 陶磁器",139.589677,35.64137214,TRUE
13112018900,13112,"189","ふどうばしおうけつ（ぼ）ぐん","不動橋横穴（墓）群","世田谷区 成城三丁目 成城四丁目","[古墳時代]","横穴墓","16基","人骨 須恵器 耳環 勾玉 鍔付金銅装大刀",139.5937282,35.63782861,TRUE
13112019000,13112,"190","なかのしんめいいせき","中神明遺跡","世田谷区 成城三丁目","[旧石器時代][縄文時代（早期・中期）][古墳時代][奈良時代][平安時代][近世]","集落","[旧石器時代]ブロック 礫群 配石 [古墳時代]住居 [縄文時代]住居址 土坑 ピット 集石 [近世]溝","旧石器 縄文土器 弥生土器 土師器 須恵器 瓦質土器 陶磁器 須恵器",139.5961315,35.63640558,TRUE
13112019500,13112,"195","にしざんやきたいせき","西山野北遺跡","世田谷区 砧三丁目","[古墳時代]","包蔵地","","土師器",139.6107476,35.63635501,TRUE
13112019700,13112,"197","いしいどみなみおうけつ","石井土南横穴","世田谷区 大蔵四丁目","[古墳時代][奈良時代]","横穴墓","","人骨",139.6109078,35.62903015,TRUE
13112020000,13112,"200","かわらけづかいせき","土器塚遺跡","世田谷区 代沢一丁目 池尻四丁目","[旧石器時代][縄文時代（中期）][弥生時代（後期）][古墳時代]","集落","[弥生時代]後期住居跡 [近世以降]溝","縄文土器 弥生土器 石器 陶磁器類",139.6803853,35.65597217,TRUE
13112020100,13112,"201","きへいやまいせき","騎兵山遺跡","世田谷区 池尻四丁目","[縄文時代（早期・中期）][古墳時代][近世][近代]","集落","[縄文時代]炉穴 住居 ピット [古墳時代]住居 [近世]建物基礎","縄文土器 陶磁器",139.679939,35.65312672,TRUE
13112020300,13112,"203","だいたくりはらいせき","代田栗原遺跡","世田谷区 代田三丁目","[縄文時代][古墳時代][近世]","包蔵地","","縄文土器 石器 土師器 板碑",139.6583617,35.65471759,TRUE
13112021500,13112,"215","しょうぎやまいせき","将監山遺跡","世田谷区 瀬田四丁目","[旧石器時代][縄文時代][古墳時代][奈良時代]","包蔵地","","剥片 縄文土器 石器 土師器 陶磁器",139.6279678,35.61990997,TRUE
13112022200,13112,"222","とどろきねおうけつぼ","等々力根横穴墓","世田谷区 等々力一丁目","[古墳時代]","横穴墓","","人骨",139.6492212,35.60229563,TRUE
13112023200,13112,"232","まつばいせき","松場遺跡","世田谷区 喜多見八丁目","[古墳時代][近世]","包蔵地","","土師器 カワラケ",139.5891994,35.63644473,TRUE
13112023300,13112,"233","みしまのやしき・しもがくとうみなみいせき","三島野屋敷・下覚東南遺跡","世田谷区 喜多見九丁目","[縄文時代（草創期〜中期）][弥生時代][古墳時代][奈良時代][平安時代][近世]","集落","","縄文土器 弥生土器 土師器 陶磁器",139.585719,35.64107299,TRUE
13112023500,13112,"235","あいのはら","相之原遺跡","世田谷区 喜多見四丁目","[縄文時代（中期）][古墳時代][奈良時代][近世]","集落","[古墳時代]住居 [奈良時代]住居 ピット 土坑 溝 [近世]ピット","縄文土器 土師器 須恵器 鉄鏃 砥石 滑石製臼玉 石製模造品 陶磁器 鉄滓 埴輪 紡錘車",139.5926841,35.63108708,TRUE
13112024200,13112,"242","しんぱちやまいせき","新八山遺跡","世田谷区 上北沢一丁目 桜上水五丁目","[縄文時代（中期）][古墳時代][近世]","集落","[縄文時代]ピット [近世]溝 土坑 ピット","縄文土器 土師器 磁器 石臼 陶磁器",139.6283087,35.66380693,TRUE
13112024500,13112,"245","いしいどづか","石井土塚","世田谷区 大蔵三丁目","[古墳時代][奈良時代][平安時代][中世][近世]","塚？","方墳","",139.6073487,35.63401113,TRUE
13112024700,13112,"247","しものだいせき","下野田遺跡","世田谷区 喜多見五丁目 喜多見六丁目 喜多見七丁目","[旧石器時代][縄文時代（早期～晩期）][古墳時代][奈良時代][平安時代][中世][近世]","包蔵地・集落","[旧石器時代]遺物集中箇所[縄文時代]落し穴　ピット　集石[古墳時代]住居　竪穴　土坑　溝　ピット[古代]住居　土坑　ピット[中世]溝　井戸　集石[近世]溝","旧石器　縄文土器　石器(石槍)　土師器　鉄製品　石製品　古銭　陶磁器",139.601044,35.63098942,TRUE
13112024800,13112,"248","おかもとはらいせき","岡本原遺跡","世田谷区 岡本一丁目","[縄文時代（早期〜中期）][古墳時代][中世][近世]","包蔵地","[古墳時代]溝","縄文土器 土師器 紡錘車 陶磁器",139.620332,35.62631979,TRUE
13112025000,13112,"250","いなりまるきたいせき","稲荷丸北遺跡","世田谷区 上野毛三丁目","[縄文時代（早期〜晩期）][古墳時代]","集落・貝塚","[縄文時代]住居 土坑 ピット [古墳時代]住居 掘立柱建物 土坑 [近世]ピット 溝?","石器 縄文土器 土錘 土製円板 けつ状耳飾 弥生土器 土師器 須恵器 装身具 陶磁器",139.6356912,35.61181815,TRUE
13112025100,13112,"251","いなりまるこふん","稲荷丸古墳","世田谷区 上野毛三丁目","[古墳時代]","古墳","円墳 [古墳時代]礫槨 石槨 葺石","",139.6354509,35.6119298,TRUE
13112025800,13112,"258","むかいのだいせき","向野田遺跡","世田谷区 砧七丁目 砧八丁目","[縄文時代（早期〜後期）][古墳時代][近世]","集落","[縄文時代]集石 土坑群 ピット群","縄文土器 石器",139.6044304,35.63911735,TRUE
13112026201,13112,"262-1","じんや1ごうふん","陣屋1号墳","世田谷区 喜多見一丁目","[古墳時代]","古墳","円墳 [古墳時代]周溝","土師器",139.5963457,35.62438351,TRUE
13112026202,13112,"262-2","じんや2ごうふん","陣屋2号墳","世田谷区 喜多見一丁目","[古墳時代]","古墳","[古墳時代]葺石","土師器 埴輪（円筒、人物、形象）",139.5965603,35.62461026,TRUE
13112026203,13112,"262-3","じんや3ごうふん","陣屋3号墳","世田谷区 喜多見四丁目","[古墳時代]","古墳","[古墳時代]石室","鉄鏃",139.5967525,35.62561757,TRUE
13112026204,13112,"262-4","じんや4ごうふん","陣屋4号墳","世田谷区 喜多見三丁目","[古墳時代]","古墳","円墳 [古墳時代]周溝","土師器 須恵器 勾玉",139.5977481,35.62498966,TRUE
13112026205,13112,"262-5","じんや5ごうふん","陣屋5号墳","世田谷区 喜多見四丁目","[古墳時代]","古墳","前方後円墳 帆立貝式 [古墳時代]周溝","土師器 須恵器 埴輪 臼玉",139.5961689,35.62565943,TRUE
13112026206,13112,"262-6","じんや6ごうふん","陣屋6号墳","世田谷区 喜多見三丁目","[古墳時代]","古墳","円墳 [古墳時代]周溝","",139.597525,35.62551989,TRUE
13112026207,13112,"262-7","じんや7ごうふん","陣屋7号墳","世田谷区 喜多見三丁目","[古墳時代]","古墳","","",139.5985464,35.62495129,TRUE
13112026209,13112,"262-9","じんや9ごうふん","陣屋9号墳","世田谷区 喜多見四丁目","[古墳時代]","古墳","円墳 [古墳時代]周溝","",139.5968383,35.6270687,TRUE
13112026213,13112,"262-3","じんや13ごうふん","陣屋13号墳","世田谷区 喜多見三丁目","[古墳時代]","古墳","[古墳時代]古墳周溝","土師器 須恵器",139.5994047,35.62492338,TRUE
13112026214,13112,"262-4","じんや14ごうふん","陣屋14号墳","世田谷区 喜多見四丁目","[古墳時代]","古墳","[古墳時代]周溝","土師器 須恵器",139.5972675,35.62712451,TRUE
13112026215,13112,"262-5","じんや15ごうふん","陣屋15号墳","世田谷区 喜多見四丁目","[古墳時代]","古墳","古墳周溝","土師器 須恵器 鉄製品（鋤鍬先）",139.5961517,35.62642685,TRUE
13112026400,13112,"264","きたみしみずいせき","喜多見清水遺跡","世田谷区 喜多見五丁目","[縄文時代（早期・中期〜後期）][古墳時代][奈良時代][平安時代][中世][近世]","集落","[奈良時代][平安時代]住居 [中世][近世]土坑 地下式土坑 井戸 溝","縄文土器 土師器 須恵器 土師質土器 陶磁器 石臼 鉄製品",139.6029495,35.62791983,TRUE
13112026500,13112,"265","しものだやまいせき","下野田山遺跡","世田谷区 喜多見六丁目","[旧石器時代][古墳時代][奈良時代][平安時代][中世][近世]","集落","[旧石器時代]ブロック","石器 焼礫 土師器 陶器 カワラケ",139.6039245,35.6300624,TRUE
13112026602,13112,"266-2","しものだ2ごうふん","下野田2号墳","世田谷区 喜多見六丁目","[古墳時代]","古墳？","円墳?","",139.6065209,35.63028913,TRUE
13112026800,13112,"268","なかしんめいおうけつぼぐん","中神明横穴墓群","世田谷区 成城三丁目","[古墳時代]","横穴墓","7基","土師器 須恵器 刀子 人骨",139.596313,35.635624,TRUE
13112027200,13112,"272","どうがやと１ごうふん","堂が谷戸1号墳","世田谷区 岡本三丁目","[古墳時代]","古墳","円墳 [古墳時代]周溝 幅4ｍ","縄文土器 土師器",139.616195,35.62453376,TRUE
13112027300,13112,"273","しもやま１ごうふん","下山1号墳","世田谷区 瀬田四丁目","[古墳時代]","古墳","[古墳時代]円形周溝","土師器",139.6246235,35.62206395,TRUE
13112028000,13112,"280","きたみなかどおりいせき","喜多見中通遺跡","世田谷区 喜多見七丁目","[縄文時代（中期〜晩期）][古墳時代][奈良時代][平安時代][中世][近世]","集落","","土師器",139.5953277,35.63203595,TRUE
13112028500,13112,"285","うなねほんむらいせき","宇奈根本村遺跡","世田谷区 宇奈根二丁目","[古墳時代][奈良時代][平安時代][中世][近世]","包蔵地","","土師器 陶磁器",139.6021049,35.62118808,TRUE
13112028600,13112,"286","かみのだおうけつぼぐん","上野田横穴墓群","世田谷区 成城四丁目","[古墳時代]","横穴墓","2基","",139.5895642,35.64492327,TRUE
13112028700,13112,"287","せんがわいせき","仙川遺跡","世田谷区 給田三丁目","[旧石器時代][縄文時代（前期）][古墳時代]","集落","[旧石器時代]ブロック [古墳時代]住居","",139.5875251,35.66436561,TRUE
13112028800,13112,"288","おかもとまえこうちいせき","岡本前耕地遺跡","世田谷区 岡本二丁目","[縄文時代（早期〜晩期）][弥生時代][古墳時代][奈良時代][平安時代][中世][近世]","集落","[縄文時代]集石 杭列 [近世]溝","縄文土器 石器 土製品 石製品 木製品 浮子 弥生土器 土師器 須恵器 灰釉 陶磁器",139.6192162,35.62029178,TRUE
13112029400,13112,"294","ひがしやまいせき","東山遺跡","世田谷区 池尻一丁目 池尻二丁目","[旧石器時代][縄文時代（中期）][弥生時代][古墳時代]","集落","[縄文時代]竪穴 土坑","縄文土器 石器",139.6837499,35.647854,TRUE
13112029600,13112,"296","とどろきはらいせき","等々力原遺跡","世田谷区 等々力一丁目","[旧石器時代][縄文時代（早期〜後期）][弥生時代（後期）][古墳時代][中世][近世]","集落","[縄文時代]住居 土坑 [弥生時代]住居","石器 縄文土器 石器 弥生土器 陶磁器 銭貨",139.6479353,35.60406427,TRUE
13112029700,13112,"297","とどろきねいせき","等々力根遺跡","世田谷区 等々力一丁目","[旧石器時代][縄文時代（早期〜後期）][古墳時代][中世][近世]","集落","","縄文土器 石器 土製品 陶磁器 銭貨 鉄製品 土錘 砥石 瓦 土師質土器 硯 礫 埴輪 須恵器 金属製品 ガラス製品",139.6479182,35.60188694,TRUE
13112030300,13112,"303","とどろきね1ごうふん","等々力根1号墳","世田谷区 等々力一丁目","[古墳時代]","古墳","[古墳時代]周溝","土師器",139.6552347,35.60028312,TRUE
13112030700,13112,"307","のげ2ごうふん","野毛2号墳","世田谷区 野毛二丁目","[古墳時代]","古墳","[古墳時代]周溝","円筒埴輪 形象埴輪 須恵器坏身",139.6412044,35.60273978,TRUE
13112030800,13112,"308","のげ3ごうふん","野毛3号墳","世田谷区 野毛二丁目","[古墳時代]","古墳","[古墳時代]主体部（礫槨）","",139.6409813,35.60318641,TRUE
13112030900,13112,"309","のげ4ごうふん","野毛4号墳","世田谷区 野毛二丁目","[古墳時代]","古墳","[古墳時代]周溝","円筒埴輪",139.6427014,35.60145482,TRUE
13112031000,13112,"310","のげ5ごうふん","野毛5号墳","世田谷区 野毛二丁目","[古墳時代]","古墳","[古墳時代]周溝","",139.6429074,35.60160835,TRUE
13112031100,13112,"311","のげ6ごうふん","野毛6号墳","世田谷区 野毛二丁目","[古墳時代]","古墳","[古墳時代]周溝","土師器坏",139.643019,35.60131525,TRUE
13112031300,13112,"313","のげおおはらおうけつぼぐん","野毛大原横穴墓群","世田谷区 野毛二丁目","[古墳時代]","横穴墓","","人骨 須恵器（長頸壺） 土師器（坏）",139.6410106,35.60389735,TRUE
13112031500,13112,"315","みやのはら1ごうふん","宮之原1号墳","世田谷区 喜多見四丁目","[古墳時代]","古墳","形態（円墳） [古墳時代]周溝 横穴式石室","土師器 須恵器",139.5939716,35.62945464,TRUE
13112031600,13112,"316","のげ7ごうふん","野毛7号墳","世田谷区 野毛一丁目","[古墳時代]","古墳","形態（ブリッジ付?円墳） [古墳時代]周溝","",139.6429716,35.60305022,TRUE
13112031700,13112,"317","のげ8ごうふん","野毛8号墳","世田谷区 野毛一丁目","[古墳時代]","古墳","形態（ブリッジ付?円墳） [古墳時代]周溝","",139.6425424,35.60328401,TRUE
13112031800,13112,"318","のげ9ごうふん","野毛9号墳","世田谷区 野毛一丁目 野毛二丁目","[古墳時代]","古墳","形態（円墳） [古墳時代]周溝","土師器",139.6433149,35.60128461,TRUE
13112032200,13112,"322","おかもとはらみなみいせき","岡本原南遺跡","世田谷区 岡本一丁目","[縄文時代（早期・中期）][古墳時代]","集落","","",139.6206678,35.62430806,TRUE
13112032300,13112,"323","しもやま2ごうふん","下山2号墳","世田谷区 瀬田五丁目","[古墳時代]","古墳","形態（円墳） [古墳時代]周溝","",139.6245549,35.62306863,TRUE
13112032400,13112,"324","しもやま3ごうふん","下山3号墳","世田谷区 瀬田五丁目","[古墳時代]","古墳","形態（ブリッジ付円墳） [古墳時代]周溝","",139.6244004,35.62140811,TRUE
13112032500,13112,"325","たいしどうしもほんむらいせき","太子堂下本村遺跡","世田谷区 三宿二丁目 太子堂三丁目","[旧石器時代][縄文時代（早期〜後期）][古墳時代][奈良時代][平安時代][近世]","集落","","",139.6721799,35.65106232,TRUE
13112032700,13112,"327","のげ10ごうふん","野毛10号墳","世田谷区 野毛二丁目","[古墳時代]","古墳","円墳 古墳周溝","土師器 須恵器",139.6431099,35.60170693,TRUE
13112033000,13112,"330","のげ11ごうふん","野毛11号墳","世田谷区 野毛一丁目","[古墳時代]","古墳","円墳 古墳周溝","",139.6438857,35.60151491,TRUE
13112033100,13112,"331","のげ12ごうふん","野毛12号墳","世田谷区 野毛一丁目","[古墳時代]","古墳","円墳 [古墳時代]周溝","",139.6428858,35.6032526,TRUE
13112033400,13112,"334","のげ13ごうふん","野毛13号墳","世田谷区 野毛一丁目","[古墳時代]","古墳","方墳 [古墳時代]周濠","埴輪 土師器 鉄製品（鉄鎌）",139.6429373,35.6041005,TRUE
13113000200,13113,"2","","渋谷区No.2遺跡","渋谷区 代々木四丁目","[縄文時代][古墳時代][奈良時代][平安時代][近世]","包蔵地・古墳","円墳","縄文土器　土師器　陶磁器",139.6924308,35.67891625,TRUE
13113000400,13113,"4","","渋谷区No.4遺跡","渋谷区 代々木五丁目","[古墳時代]","古墳","円墳?","石棺",139.6886199,35.67215383,TRUE
13113000900,13113,"9","かねづかこふん","カネ塚古墳","渋谷区 西原三丁目","[古墳時代]","古墳","円墳","武装埴輪　玉　ほう製鏡　金環　銭貨",139.6788639,35.67022637,TRUE
13113001200,13113,"12","","渋谷区No.12遺跡","渋谷区 富ケ谷一丁目","[古墳時代][奈良時代]","横穴墓","","",139.6887859,35.66827397,TRUE
13113001300,13113,"13","","渋谷区No.13遺跡","渋谷区 富ケ谷一丁目","[古墳時代][奈良時代]","横穴墓","","",139.6903996,35.66687937,TRUE
13113001400,13113,"14","","渋谷区No.14遺跡","渋谷区 富ケ谷二丁目","[古墳時代]","古墳","円墳","",139.6867603,35.66612627,TRUE
13113001700,13113,"17","","渋谷区No.17遺跡","渋谷区 代々木神園町","[古墳時代]","古墳","円墳","須恵器　鉄刀",139.6976093,35.68040597,TRUE
13113002200,13113,"22","","渋谷区No.22遺跡","渋谷区 代々木神園町","[古墳時代]","古墳","円墳","箱式石棺",139.6996349,35.67401947,TRUE
13113002300,13113,"23","","渋谷区No.23遺跡","渋谷区 代々木神園町","[古墳時代]","古墳","円墳3基","須恵器　鏡　鉄刀",139.6924252,35.67438203,TRUE
13113002900,13113,"29","なまこやまこふん","ナマコ山古墳","渋谷区 神南二丁目","[古墳時代]","古墳","前方後円墳?","",139.6967854,35.66492689,TRUE
13113003100,13113,"31","","渋谷区No.31遺跡","渋谷区 松濤二丁目","[古墳時代][奈良時代]","横穴墓","","",139.6896326,35.66033388,TRUE
13113003500,13113,"35","まるやまちょういせき","円山町遺跡","渋谷区 円山町","[古墳時代]","集落","[古墳時代]住居","土師器　軽石",139.6944735,35.65648434,TRUE
13113003600,13113,"36","","渋谷区No.36遺跡","渋谷区 道玄坂一丁目","[古墳時代][奈良時代]","横穴墓","","",139.699865,35.65712594,TRUE
13113004000,13113,"40","","渋谷区No.40遺跡","渋谷区 道玄坂二丁目","[古墳時代][奈良時代]","横穴墓","","",139.6964661,35.65983177,TRUE
13113004100,13113,"41","","渋谷区No.41遺跡","渋谷区 桜丘町","[古墳時代][奈良時代]","横穴墓","","",139.7021496,35.65614244,TRUE
13113004500,13113,"45","","渋谷区No.45遺跡","渋谷区 鶯谷町","[古墳時代][奈良時代]","横穴墓","","",139.7039349,35.65424548,TRUE
13113004700,13113,"47","","渋谷区No.47遺跡","渋谷区 鶯谷町","[古墳時代][奈良時代]","横穴墓","","",139.7025616,35.65251587,TRUE
13113004800,13113,"48","","渋谷区No.48遺跡","渋谷区 猿楽町","[古墳時代][奈良時代]","横穴墓","4基","",139.7046902,35.65307382,TRUE
13113005000,13113,"50","さるがくづか（きたづか）","猿楽塚(北塚)","渋谷区 猿楽町","[古墳時代]","古墳","※遺跡範囲のすべてが、No.51猿楽塚（南塚）とともに渋谷区指定史跡猿楽塚となっています。 円墳","",139.7003643,35.64802429,TRUE
13113005100,13113,"51","さるがくづか（みなみづか）","猿楽塚(南塚)","渋谷区 猿楽町","[古墳時代]","古墳","※遺跡範囲のすべてが、No.50猿楽塚（北塚）とともに渋谷区指定史跡猿楽塚となっています。 円墳","",139.700742,35.6476616,TRUE
13113005500,13113,"55","","渋谷区No.55遺跡","渋谷区 恵比寿南一丁目","[古墳時代]","古墳","円墳","",139.7101266,35.64570088,TRUE
13113005600,13113,"56","しぶやづかこふん","渋谷塚古墳","渋谷区 恵比寿南一丁目","[古墳時代]","古墳","円墳","",139.7095997,35.64448106,TRUE
13113005800,13113,"58","とよさわかいづか","豊沢貝塚","渋谷区 恵比寿二丁目","[縄文時代（早期〜晩期）][弥生時代（後期）][古墳時代][平安時代]","集落・貝塚","[縄文時代]住居　土坑　埋甕　陥穴　墓壙　掘立柱建物　[平安時代]掘立柱建物","縄文土器　打製石斧　磨製石斧　石鏃　石皿　磨石　石剣　土偶　砥石　土師器　弥生土器　須恵器　縄文人骨",139.720998,35.64621084,TRUE
13113006200,13113,"62","かけづかこふん","加計塚古墳","渋谷区 恵比寿四丁目","[古墳時代]","古墳","円墳","",139.7143719,35.64462056,TRUE
13113006400,13113,"64","","渋谷区No.64遺跡","渋谷区 渋谷一丁目","[古墳時代][奈良時代]","横穴墓","","",139.7036458,35.66139007,TRUE
13113006500,13113,"65","","渋谷区No.65遺跡","渋谷区 渋谷二丁目","[古墳時代][奈良時代]","横穴墓","2基","",139.7032338,35.6597164,TRUE
13113006800,13113,"68","","渋谷区No.68遺跡","渋谷区 渋谷三丁目　東一丁目","[古墳時代][奈良時代]","横穴墓","","",139.7071081,35.65605076,TRUE
13113007200,13113,"72","","渋谷区No.72遺跡","渋谷区 東四丁目","[古墳時代][奈良時代]","横穴墓","","小玉",139.7128073,35.65761292,TRUE
13113007700,13113,"77","","渋谷区No.77遺跡","渋谷区 広尾二丁目","[古墳時代][奈良時代]","横穴墓","","",139.7148182,35.65120469,TRUE
13113007800,13113,"78","","渋谷区No.78遺跡","渋谷区 広尾二丁目","[古墳時代]","古墳","円墳2基","",139.7170498,35.65128839,TRUE
13113008100,13113,"81","","渋谷区No.81遺跡","渋谷区 代々木四丁目","[古墳時代]","古墳","","",139.6897185,35.68206753,TRUE
13113009400,13113,"94","","渋谷区No.94遺跡","渋谷区 神南二丁目","[縄文時代][古墳時代][奈良時代][平安時代]","包蔵地","","縄文土器　土師器　須恵器",139.6987766,35.66623784,TRUE
13113009500,13113,"95","せいしんじょしだいがくこうないこふん","聖心女子大学構内古墳","渋谷区 広尾四丁目","[古墳時代]","古墳","円墳","",139.720174,35.65193003,TRUE
13113009700,13113,"97","えびすいせき","恵比寿遺跡","渋谷区 恵比寿四丁目","[旧石器時代][縄文時代][古墳時代][近世]","集落","[縄文時代]土坑　[古墳時代]住居　[近世]土坑　溝","ナイフ形石器　掻器　剥片　縄文土器　打斧　石槍　土師器　陶磁器　砥石　玩具　人形",139.7135822,35.64322554,TRUE
13114001300,13114,"13","","中野区No.13遺跡","中野区 大和町四丁目","[古墳時代]","包蔵地","","土師器",139.6461376,35.71430874,TRUE
13114003600,13114,"36","","中野区No.36遺跡","中野区 江原町二丁目","[縄文時代（後期）][古墳時代]","包蔵地","","縄文土器　石鏃　石片　石斧　石皿　土師器",139.6708783,35.73038265,TRUE
13114004200,13114,"42","かたやまにしいせき","片山西遺跡","中野区 松が丘一丁目","[古墳時代][奈良時代]","包蔵地","","",139.67115,35.7183753,TRUE
13114004700,13114,"47","ぬまぶくろちょうひかわじんじゃふきんいせき","沼袋町氷川神社付近遺跡","中野区 沼袋一丁目","[縄文時代（中期〜後期）][弥生時代][古墳時代][奈良時代]","集落","[時代不明]竪穴住居跡","縄文土器　石器　弥生土器　土師器　須恵器　蔵骨器　鉄滓",139.6667898,35.71985262,TRUE
13114005300,13114,"53","へいわのもりこうえんきたいせき","平和の森公園北遺跡","中野区 新井三丁目　 新井四丁目","[旧石器時代][縄文時代（早期〜後期）][弥生時代][古墳時代][近世]","集落","[縄文時代]竪穴住居跡　土坑　小形円形竪穴　[弥生時代]竪穴住居跡　土坑　[古墳時代]竪穴住居跡　溝　[近世]空堀　方形竪穴","縄文土器　弥生土器　炭化物　土師器　滑石製紡錘車　陶磁器　高田徳利　キセル　燈明皿　擂り鉢　寛永通宝　ミニチュア製品",139.6622065,35.71639621,TRUE
13114006000,13114,"60","","中野区No.60遺跡","中野区 中野二丁目","[古墳時代]","包蔵地","","土師器",139.6713708,35.70412632,TRUE
13114006500,13114,"65","","中野区No.65遺跡","中野区 東中野五丁目","[古墳時代][奈良時代]","包蔵地","[古墳時代]横穴","人骨",139.689224,35.708805,TRUE
13114006600,13114,"66","とうやまこふんぐんいせき","塔山古墳群","中野区 中央一丁目","[古墳時代]","古墳","","鉄釘　直刀",139.6838773,35.6989713,TRUE
13114007200,13114,"72","じょうがんじいせき","成願寺遺跡","中野区 本町二丁目","[古墳時代][奈良時代]","包蔵地","[古墳時代][奈良時代]横穴墓","",139.6802724,35.6942035,TRUE
13114007700,13114,"77","","中野区No.77遺跡","中野区 本町五丁目","[古墳時代][奈良時代]","包蔵地","[古墳時代][奈良時代]横穴墓","",139.670213,35.69333913,TRUE
13114008100,13114,"81","むこうだいよこあなぼぐん","向台横穴墓群","中野区 弥生町一丁目","[古墳時代][奈良時代]","横穴墓","[古墳時代][奈良時代]横穴墓","",139.6796544,35.69080174,TRUE
13114008200,13114,"82","やよいちょうにちょうめいせき","弥生町二丁目遺跡","中野区 弥生町二丁目","[縄文時代（中期）][古墳時代]","集落","[古墳時代]竪穴住居跡","縄文土器　石鏃　石皿　石棒　弥生土器　土師器　砥石",139.6705907,35.69018829,TRUE
13114008300,13114,"83","かわしまちょう","川島町遺跡","中野区 弥生町三丁目　 弥生町四丁目","[縄文時代（後期）][弥生時代][古墳時代]","集落","[弥生時代]竪穴住居跡","縄文土器　石斧　弥生土器　土師器",139.6739896,35.68935176,TRUE
13114008400,13114,"84","なかのしんめいしょうがっこうこうてい（しんめいちょうひかわじんじゃ）","中野神明小学校校庭（神明町氷川神社）遺跡","中野区 弥生町四丁目","[縄文時代（後期〜晩期）][古墳時代][近世]","集落","[古墳時代]竪穴住居跡　[近世]墓壙","縄文土器　打製石斧　石鏃　土師器　炭化物　陶磁器　人歯",139.6704534,35.68784599,TRUE
13114008600,13114,"86","ふじみだい（だいごこうとうじょしこう）（とりつふじこうこう）いせき","富士見台（第五高等女子校）（都立富士高校内）遺跡","中野区 弥生町五丁目","[縄文時代（早期〜中期）][弥生時代][古墳時代]","集落","[縄文時代]竪穴住居跡　[古墳時代]環濠　5軒","縄文土器　打製石斧　石鏃　石皿　凹石　石棒　弥生土器　土師器　鉄製品　瑪瑙製勾玉　土製品　紡錘車　砥石　鉄滓",139.6678098,35.68988157,TRUE
13114009300,13114,"93","むかいだい（ひろまち）せき","向田（広町）遺跡","中野区 弥生町六丁目　 南台五丁目","[旧石器時代][縄文時代（後期）][弥生時代][古墳時代]","集落","[古墳時代]竪穴住居跡","土師器　須恵器　支脚形土製品　玉類　縄文土器　石掻　弥生土器　土錘　獣魚骨",139.6613553,35.6853642,TRUE
13114010200,13114,"102","ひかわじんじゃふきんこふん","氷川神社付近古墳","中野区 沼袋一丁目","[古墳時代]","古墳","","鉄刀",139.6676138,35.71890491,TRUE
13115000300,13115,"3","いぐさせきしーちてん","井草遺跡C地点","杉並区 上井草三丁目","[旧石器時代][縄文時代（早期・中期）][古墳時代][近世]","包蔵地","[旧石器時代]ブロック　礫群　[縄文時代]炉穴　遺物集中部　[近世]溝状遺構　土坑","ナイフ形石器　台形石器　縄文土器　敲石　土師器　磁器　陶器",139.6024605,35.72136304,TRUE
13115000400,13115,"4","いぐさいせき","井草遺跡","杉並区 上井草四丁目","[旧石器時代][縄文時代（草創期〜早期）][古墳時代]","包蔵地　集落","[縄文時代]住居　土坑","[縄]縄文土器　斧形石器　敲石　特殊磨石　石皿",139.5971733,35.71977425,TRUE
13115000700,13115,"7","","杉並区No.7遺跡","杉並区 下井草一丁目","[縄文時代（中期）][弥生時代][古墳時代]","包蔵地","","縄文土器　弥生土器　土師器",139.6310869,35.71734835,TRUE
13115001400,13115,"14","いぐさはちまんいせき","井草八幡遺跡","杉並区 善福寺一丁目","[縄文時代（中期・後期）][古墳時代]","集落","[縄文時代]住居","縄文土器　打斧　石鏃　土師器",139.5958,35.7160112,TRUE
13115001800,13115,"18","","杉並区No.18遺跡","杉並区 清水三丁目","[縄文時代（中期）][古墳時代]","包蔵地","","縄文土器　土師器　須恵器",139.6208559,35.71640061,TRUE
13115002200,13115,"22","","杉並区No.22遺跡","杉並区 本天沼二丁目","[古墳時代]","包蔵地","","土師器",139.6255937,35.71623336,TRUE
13115002400,13115,"24","むかいまちいせき","向井町遺跡","杉並区 本天沼三丁目","[縄文時代（後期）][古墳時代]","集落","[縄文時代]住居　[古墳時代]住居","縄文土器　打斧　石皿　土錘　土偶　土師器",139.6233278,35.71634486,TRUE
13115002500,13115,"25","こやまいせき","小山遺跡","杉並区 阿佐谷北五丁目","[縄文時代（後期）][古墳時代][奈良時代]","包蔵地","","縄文土器　打斧　磨斧　石鏃　土師器",139.639848,35.70806899,TRUE
13115003700,13115,"37","かわなみいせき","川南遺跡","杉並区 荻窪二丁目","[旧石器時代][縄文時代][古墳時代][奈良時代][平安時代]","包蔵地","","縄文土器　土師器　ナイフ形石器　掻器　石核　剥片",139.6222201,35.69617963,TRUE
13115004300,13115,"43","","杉並区No.43遺跡","杉並区 成田西二丁目","[古墳時代]","包蔵地","","土師器",139.6271064,35.69016785,TRUE
13115004400,13115,"44","くまのじんじゃみなみいせき","熊野神社南遺跡","杉並区 成田西三丁目","[縄文時代（早期・中期）][古墳時代][近世]","集落","[古墳時代]住居[近世]溝　ピット","[縄文時代]縄文土器　打斧[古墳時代]土師器　鉄製品[近世]土器",139.6317909,35.69291291,TRUE
13115004500,13115,"45","くまのじんじゃいせき","熊野神社遺跡","杉並区 成田西三丁目","[縄文時代（早期〜後期）][弥生時代][古墳時代]","集落","[縄文時代]住居　[古墳時代]住居","縄文土器　打斧　磨斧　石槍　石鏃　土師器",139.6323745,35.69408399,TRUE
13115004600,13115,"46","やといせき","谷戸遺跡","杉並区 成田西三丁目","[縄文時代（前期〜後期）][古墳時代]","集落","[縄文時代]住居","縄文土器　打斧　磨斧　石匙　石錐　石錘　石皿　凹石　土師器　硬玉製管玉",139.6241005,35.69135144,TRUE
13115004700,13115,"47","やくらだいみなみいせき","矢倉台南遺跡","杉並区 成田西四丁目　 荻窪一丁目","[縄文時代（草創期〜後期）][弥生時代][古墳時代][中世]","集落","[古墳時代]住居　[縄文時代]住居跡　[中世]溝状遺構","縄文土器　打斧　石鏃　石匙　石皿　弥生土器　土錘　土師器　有舌尖頭器　翡翠製石製品　須恵器　陶器　礫石器",139.626538,35.69360999,TRUE
13115004800,13115,"48","やくらだいいせき","矢倉台遺跡","杉並区 成田西四丁目","[縄文時代（中期）]［古墳時代］","包蔵地　集落","[古墳時代]住居　環濠　ピット","縄文土器　打斧　土師器　土錘　支脚",139.6295329,35.69541052,TRUE
13115004900,13115,"49","なりむねしらはたいせき","成宗白幡遺跡","杉並区 成田東一丁目　 成田東二丁目","[縄文時代（早期〜中期）][古墳時代]","集落","[古墳時代]住居","縄文土器　打斧　土師器",139.6368015,35.68738653,TRUE
13115005600,13115,"56","","杉並区No.56遺跡","杉並区 大宮二丁目","[旧石器時代][古墳時代]","集落","[旧石器時代]礫群","土師器",139.6425349,35.6828969,TRUE
13115005900,13115,"59","まつのきいせき","松ノ木遺跡","杉並区 松ノ木一丁目","[縄文時代（中期）][弥生時代][古墳時代]","集落","[不]住居","縄文土器　石斧　石鏃　凹石　土錘　土偶　炭化米　炭化材　弥生土器　土師器　支脚",139.6411273,35.68641055,TRUE
13115006000,13115,"60","ほうなんちょうみねいせきぐん（ほうなんみね・みねみなみ・ほうなん・みね・かまでらひがし・かまでら）いせき","方南町峰遺跡群（方南峰・峰南・方南・峯・釜寺東・釜寺）遺跡","杉並区 堀ノ内一丁目　 方南二丁目","[旧石器時代][縄文時代（早期〜後期）][弥生時代（後期）][古墳時代][奈良時代][近世]","集落","[旧石器時代]ブロック　礫群　[縄文時代]住居　炉穴　遺物集中部　炉跡　[弥生時代]住居　環濠　[古墳時代]住居　[近世]溝状遺構　地下室　地下坑","ナイフ形石器　彫器　スクレイパー　敲石　石核　剥片　縄文土器　土製蓋　ミニチュア土器　土偶　打製石斧　磨製石斧石鏃　石錘　石皿　磨石　凹石　石棒　炭化材　炭化米　弥生土器　ガラス小玉　砥石　土師器　須恵器　支脚　紡錘車　鉄環　磁器　陶器",139.6573439,35.68350464,TRUE
13115006100,13115,"61","","杉並区No.61遺跡","杉並区 堀ノ内一丁目","[古墳時代]","包蔵地","","土師器",139.6498653,35.68686371,TRUE
13115006200,13115,"62","せいびだいいせき","済美台遺跡","杉並区 大宮一丁目　 堀ノ内一丁目","[旧石器時代][縄文時代（草創期〜後期）][弥生時代][古墳時代][奈良時代]","集落","[旧石器時代]礫群　[縄文時代]住居　[弥生時代]周溝(方形周溝墓?)　杉並125参照","剥片　縄文土器　打斧　石鏃　石槍　石匙　土錘　土偶　弥生土器　滑石製勾玉　土師器　須恵器　炭化物",139.6471873,35.68778392,TRUE
13115006500,13115,"65","ほりのうちなかどおりいせき","堀ノ内中通遺跡","杉並区 堀ノ内二丁目","[縄文時代（中期）][弥生時代][古墳時代][奈良時代][平安時代]","包蔵地","[縄文時代]住居","縄文土器　土師器　須恵器",139.6512671,35.68721345,TRUE
13115006600,13115,"66","","杉並区No.66遺跡","杉並区 堀ノ内二丁目","[縄文時代（後期）][古墳時代]","包蔵地","","縄文土器　打斧　土師器",139.6469069,35.69053171,TRUE
13115006800,13115,"68","ほんむらはらいせきしーちてん","本村原遺跡C地点","杉並区 和田一丁目","[縄文時代（早期〜後期）][弥生時代（後期）][古墳時代][平安時代][近世]","包蔵地・集落","[縄文時代]陥穴　[弥生時代]住居　[平安時代]住居　[近世]土坑　溝　植栽跡　段切り状遺構","縄文土器　弥生土器　埴輪　土師器　須恵器　陶磁器　炉器　土器　瓦　土製品　石製品　金属製品　銭貨　ガラス製品",139.662614,35.69361621,TRUE
13115007000,13115,"70","","杉並区No.70遺跡","杉並区 和田二丁目","[古墳時代][奈良時代]","横穴墓","1基","人骨",139.6559706,35.68818942,TRUE
13115007100,13115,"71","わだちゅうがっこういせき","和田中学校遺跡","杉並区 和田二丁目","[縄文時代（中期）][古墳時代]","包蔵地","","縄文土器　石鏃　土師器",139.6595412,35.68958365,TRUE
13115007200,13115,"72","ほんじんやまいせき","本陣山遺跡","杉並区 堀ノ内二丁目　和田二丁目","[縄文時代（早期〜中期）][弥生時代（後期）][古墳時代][中世][近世]","集落","[縄文時代]炉穴　集石　土坑　ピット　[弥生時代]住居跡　[中世][近世]掘立柱建物","（旧石器）敲石　剥片類　（縄文）土器　土製円板　（弥生）土器　ガラス小玉　（古墳時代以降）土師器　砥石　鉄環　カワラケ　陶磁器　鉄器など",139.653824,35.685158,TRUE
13115007800,13115,"78","なかふくろ（やまなか）いせき","中袋（山中）遺跡","杉並区 高井戸西一丁目","[縄文時代（中期〜晩期）][古墳時代][中世]","集落","[縄文時代]住居跡　土坑　[古墳時代]住居跡　[中世]地下式土坑","縄文土器　石斧　石鏃　石製品　土製品　土師器",139.6136958,35.68203241,TRUE
13115008000,13115,"80","","杉並区No.80遺跡","杉並区 高井戸西二丁目","[縄文時代（中期）][古墳時代]","包蔵地","","縄文土器　土師器",139.6100223,35.6847374,TRUE
13115008400,13115,"84","","杉並区No.84遺跡","杉並区 下高井戸三丁目","[縄文時代（中期〜後期）][古墳時代]","包蔵地","","縄文土器　土師器",139.6317755,35.67527635,TRUE
13115009000,13115,"90","","杉並区No.90遺跡","杉並区 永福二丁目","[古墳時代]","包蔵地","","土師器　須恵器",139.6397921,35.67290192,TRUE
13115009200,13115,"92","ねがわらいせき","根河原遺跡","杉並区 和泉三丁目","[旧石器時代][縄文時代（早期・後期）][古墳時代]","集落","[旧石器時代]ブロック　[古墳時代]住居　[縄文時代]土坑　炉跡","縄文土器　打斧　石棒　土師器　鋸歯　縁石器　尖頭状石器　剥片　石斧",139.647891,35.67707286,TRUE
13115009300,13115,"93","","杉並区No.93遺跡","杉並区 和泉四丁目","[古墳時代]","集落","[古墳時代]住居","土師器",139.6521941,35.67940522,TRUE
13115011000,13115,"110","たかいどひがしいせき","高井戸東遺跡","杉並区 高井戸西二丁目　 高井戸東三丁目","[旧石器時代][縄文時代（草創期〜後期）][古墳時代][中世][近世]","集落","[旧石器時代]ブロック　[縄文時代]陥し穴　[古墳時代]住居　[中世]地下式坑　段切り状遺構　土坑　ピット　溝状遺構","ナイフ形石器　台形石器　スクレイパー　局部磨製石斧　敲石　石棒　剥片　縄文土器　弥生土器　土師器　須恵器　陶器　瓦質土器　瓦",139.6161334,35.68459797,TRUE
13115011200,13115,"112","","杉並区No.112遺跡","杉並区 高円寺南二丁目","［縄文時代（中期）］[古墳時代][奈良時代][平安時代][近世]","包蔵地","","縄文土器　土師器　陶磁器",139.6531316,35.70027406,TRUE
13115011500,13115,"115","","杉並区No.115遺跡","杉並区 上井草三丁目","[旧石器時代][縄文時代（中期〜後期）][古墳時代]","包蔵地","","ナイフ形石器　縄文土器　土師器",139.5996452,35.72072195,TRUE
13115011900,13115,"119","むかいのはらびーいせき","向ノ原B遺跡","杉並区 久我山二丁目","[旧石器時代][縄文時代（草創期〜後期）][古墳時代]","集落","[旧石器時代]礫群　[縄文時代]住居　竪穴状遺構　炉穴　土坑　柱穴群","ナイフ形石器　切出形石器　角錐状石器　石核　縄文土器　打斧　礫器　石槍　有舌尖頭器　尖頭状石器　石鏃　掻器　削器　磨石　スタンプ形石器　抉入磨石　凹石　砥石　石盤　土製品",139.6006496,35.68621535,TRUE
13115012000,13115,"120","","杉並区No.120遺跡","杉並区 久我山三丁目","[古墳時代]","包蔵地","","土師器",139.5967121,35.68603889,TRUE
13115012400,13115,"124","まつのききたいせき","松ノ木北遺跡","杉並区 松ノ木一丁目","[縄文時代（中期）][古墳時代][中世]","集落跡","[古墳時代]住居跡[中世]地下式土坑","[縄文時代]縄文土器　打斧[古墳時代]土師器",139.6430156,35.68886443,TRUE
13115012900,13115,"129","にっしょうじいせきびーちてん","日性寺遺跡B地点","杉並区 成田西二丁目","[旧石器時代][縄文時代（中期）][弥生時代][古墳時代][近世]","集落","[縄文時代]土坑　[古墳時代]住居　[不]ピット群","掻器　縄文土器　石皿　磨石　弥生土器　土師器　土玉　陶磁器",139.628926,35.68857844,TRUE
13115013000,13115,"130","","杉並区No.130遺跡","杉並区 成田西三丁目","[古墳時代]","包蔵地","","土師器",139.6310012,35.69168604,TRUE
13115013200,13115,"132","","杉並区No.132遺跡","杉並区 久我山三丁目","[古墳時代]","包蔵地","[古墳時代]溝状遺構","土師器　土錘",139.5960597,35.68896682,TRUE
13115013600,13115,"136","","杉並区No.136遺跡","杉並区 和泉四丁目","[古墳時代]","包蔵地","","土師器",139.656211,35.6790148,TRUE
13115013900,13115,"139","","杉並区No.139遺跡","杉並区 井草五丁目","[古墳時代]","包蔵地","","土師器",139.6039389,35.72634862,TRUE
13115014600,13115,"146","","杉並区No.146遺跡","杉並区 上井草一丁目","[古墳時代]","包蔵地","","土師器",139.6119384,35.72060689,TRUE
13115014700,13115,"147","","杉並区No.147遺跡","杉並区 下井草五丁目","[古墳時代]","包蔵地","","土師器",139.6147537,35.72004576,TRUE
13115015100,13115,"151","","杉並区No.151遺跡","杉並区 井草一丁目","[縄文時代][古墳時代]","包蔵地","","縄文土器　土師器",139.6232935,35.72874825,TRUE
13115015700,13115,"157","","杉並区No.157遺跡","杉並区 阿佐谷北二丁目","[古墳時代]","包蔵地","","土師器",139.6350758,35.70611752,TRUE
13115016000,13115,"160","あさがやほんむら","阿佐谷本村遺跡","杉並区 阿佐谷北一丁目","[旧石器時代][縄文時代（中期～後期）][古墳時代][近世]","包蔵地","[旧石器時代]石器集中部[縄文時代]土坑　ピット[近世]地下室　土坑　ピット","[旧石器時代]ナイフ形石器[縄文時代]縄文土器[古墳時代]土師器[近世]陶磁器　土器",139.6374104,35.70698175,TRUE
13115016200,13115,"162","","杉並区No.162遺跡","杉並区 阿佐谷南一丁目","[古墳時代][奈良時代][平安時代]","包蔵地","","土師器",139.6417706,35.6995658,TRUE
13115016500,13115,"165","","杉並区No.165遺跡","杉並区 高円寺南一丁目","[縄文時代（中期）][古墳時代]","包蔵地","","縄文土器　土師器",139.6561528,35.69915883,TRUE
13115016700,13115,"167","","杉並区No.167遺跡","杉並区 永福二丁目","[縄文時代（中期）][古墳時代]","包蔵地","","縄文土器　土師器",139.6373202,35.67348761,TRUE
13115016800,13115,"168","","杉並区No.168遺跡","杉並区 永福一丁目","[縄文時代（早期〜中期）][古墳時代][奈良時代][平安時代][近世]","包蔵地","","縄文土器　土師器　須恵器",139.6440401,35.67227754,TRUE
13115017100,13115,"171","がっけいせき","崕遺跡","杉並区 和泉一丁目　 和泉四丁目","[縄文時代（中期）][古墳時代][奈良時代][平安時代][近世]","包蔵地・集落","[近世]竪穴式遺構　土坑　墓壙　溝　柱穴列　道路状遺構　半地下倉庫","尖頭器　スタンプ形石器　敲石　縄文土器　土師器　須恵器　陶磁器　土器　炉器　瓦　銭貨　金属製品　石製品　土製品　木製品",139.655284,35.67695106,TRUE
13115017200,13115,"172","","杉並区No.172遺跡","杉並区 和泉四丁目","[古墳時代][近世]","包蔵地","","土師器　陶磁器",139.6519538,35.68138524,TRUE
13115017300,13115,"173","うえはらいせき","上原遺跡","杉並区 和泉三丁目","[縄文時代（早期〜前期）][古墳時代][近世]","包蔵地・集落","[古墳時代]住居　[近世]溝","縄文土器　石器　土師器",139.6507749,35.68209266,TRUE
13115017400,13115,"174","ほんむらはらいせき","本村原遺跡","杉並区 和田一丁目","[縄文時代（早期〜前期・後期）][弥生時代（後期）][古墳時代][中世][近世]","包蔵地","[縄文時代]ユニット　集石　土坑","縄文土器　打斧　石鏃　磨石　弥生土器　土師器　須恵器　円筒埴輪　陶磁器",139.6624767,35.69272395,TRUE
13115017600,13115,"176","かまくらばしうえいせき","鎌倉橋上遺跡","杉並区 浜田山一丁目　 浜田山二丁目","[旧石器時代][縄文時代（早期〜後期）]　[弥生時代（後期）][古墳時代][中世][近世]","集落","[旧石器時代]礫群　ブロック　[縄文時代]住居　土坑　[弥生時代]住居　環濠","細石器　細石刃　ナイフ形石器　角錐状石器　スクレイパー　石刃　石核　細石核　縄文土器　尖頭器　打製石斧　石匙　磨石　土偶　弥生土器　石器　ミニチュア土器　被熱粘土塊　陶磁器　銭貨　鉄鏃　土師器",139.6274325,35.67714111,TRUE
13115018000,13115,"180","たかちほだいがくおおみやいせき","高千穂大学大宮遺跡","杉並区 大宮二丁目","[旧石器時代][縄文時代（早期・中期）][古墳時代][中世]","集落・古墳","[旧石器時代]礫群　ブロック　[縄文時代]陥し坑　土坑　[古墳時代]円墳（周溝）　住居　[中世]溝状遺構　溝　土坑","剥片　縄文土器　土師器　埴輪　鉄製品　陶磁器",139.6376941,35.68312,TRUE
13116000200,13116,"2","いけぶくろひがしかいづか","池袋東貝塚","豊島区 池袋本町三丁目　 池袋本町四丁目","[縄文時代（前期）][古墳時代][奈良時代][平安時代][中世]","包蔵地・貝塚","竪穴住居址　ピット　溝状遺構　畠畝　礎石　道","縄文土器　弥生土器　石斧　石皿　凹石　敲石　土師器　須恵器　陶磁器　瓦　金属製品",139.7141473,35.74416267,TRUE
13116000500,13116,"5","そめいいせき","染井遺跡","豊島区 巣鴨一丁目　 巣鴨二丁目　 巣鴨三丁目　 巣鴨四丁目　 巣鴨五丁目　 駒込一丁目　 駒込二丁目　 駒込三丁目　 駒込四丁目　 駒込五丁目　 駒込六丁目　 駒込七丁目","[縄文時代（早期〜後期）][弥生時代（後期）][古墳時代][中世][近世]","包蔵地・集落・貝塚・屋敷（大名屋敷）・その他（町屋）","[縄]住居　陥し穴　[弥生時代]方形周溝墓　[中世]道路　[近世]掘立柱建物　方形竪穴　土坑　地下室　門　井戸　畝　溝　柵列　地鎮址　ピット　畝状遺構","縄文土器　石器　弥生土器　土師器　須恵器　陶磁器　舶載磁器　土製品　石製品　硝子製品　金属製品",139.7413728,35.73716819,TRUE
13116000700,13116,"7","きたおおつかいせき","北大塚遺跡","豊島区 北大塚一丁目","[縄文時代][古墳時代][近世]","包蔵地・屋敷（大名屋敷）","[近世]方形竪穴　塀　生垣　溝　畝　祭祀遺構","縄文土器　土師器　陶磁器　土器　土製品　石製品　金属製品　銭貨",139.731995,35.733017,TRUE
13116000900,13116,"9","こまごめこふん","駒込古墳","豊島区 駒込一丁目","[古墳時代]","古墳","","紡錘車　勾玉　金環",139.7497842,35.73425248,TRUE
13116001600,13116,"16","ちはやいせき","千早遺跡","豊島区 千早四丁目","[縄文時代][古墳時代]","包蔵地","土坑など","縄文土器　陶磁器",139.6822183,35.73825502,TRUE
13117000300,13117,"3","どうやまおうけつぼ","堂山横穴墓","北区 赤羽北一丁目","[古墳時代][奈良時代]","横穴墓","","",139.7145969,35.78613812,TRUE
13117000400,13117,"4","ふくろていちいせき","袋低地遺跡","北区 赤羽北一丁目　赤羽北二丁目","[縄文時代][弥生時代][古墳時代][奈良時代][平安時代][中世][近世]","包蔵地・貝塚","[縄文時代]集石群　自然流路　貝塚　[古墳時代][奈良時代][平安時代]土坑　溝址　井戸址　[中世][近世]土坑　溝址　井戸址","縄文土器　石錘　土錘　漆塗土器　朱漆木製耳栓　牙製装飾品　石棒　石器　弥生土器　土師器　須恵器　陶磁器類　独木舟　漆器　飾り弓　銭貨",139.7092754,35.78541401,TRUE
13117000500,13117,"5","あかばねだいいせき","赤羽台遺跡","北区 赤羽台四丁目","[旧石器時代][縄文時代][弥生時代][古墳時代][奈良時代][平安時代][中世][近世]","集落","[旧石器時代]石器ブロック　[縄文時代]住居址　集石　炉穴　土坑　[弥生時代]環濠　方形周溝墓　土坑　住居址　[古墳時代]住居址　溝状遺構　[奈良時代][平安時代]住居址　掘立柱建物址　特殊遺構　[平安時代]住居　[中世]土坑　地下式土坑溝　[中世][近世]地下式壙　溝址　[近世]地下室　溝　[近代]近衛工兵隊関連施設","旧石器　石器　縄文土器　石斧　礫器　有舌尖頭器　石鏃　敲石　弥生土器　ガラス玉　土師器　須恵器　鉄器　蔵骨器　板碑　陶磁器類",139.712228,35.7839379,TRUE
13117000600,13117,"6","あかばねだいこふんぐん","赤羽台古墳群","北区 赤羽台四丁目","[古墳時代]","古墳","円墳　[古墳時代]周溝　横穴式石室","土師器　須恵器　鉄器　刀子　埴輪　玉類　直刀　金環　銀環　金銅製金具　弓金具",139.7160389,35.78396575,TRUE
13117000800,13117,"8","きりがおかいせき","桐ヶ丘遺跡","北区 赤羽北三丁目　桐ヶ丘一丁目　桐ヶ丘二丁目","[旧石器時代][縄文時代（早期・中期〜後期）][弥生時代][古墳時代][奈良時代][平安時代]","集落","[旧石器時代]礫群　[縄文時代][弥生時代][古墳時代][奈良時代][平安時代]住居","石器　縄文土器　弥生土器　土師器　須恵器　鎌　刀子　砥石　鉄滓",139.7056019,35.77984366,TRUE
13117001000,13117,"10","みたまこふん","ミタマ古墳","北区 赤羽台一丁目","[古墳時代]","古墳","円墳?　[古墳時代]石棺?","直刀?",139.7149684,35.7790944,TRUE
13117001100,13117,"11","てんのうづかこふん","天王塚古墳","北区 赤羽台一丁目","[古墳時代]","古墳","[古墳時代]石棺?","人骨",139.7153461,35.77789671,TRUE
13117001400,13117,"14","おおつかこふん","大塚古墳","北区 赤羽西五丁目","[古墳時代]","古墳","円墳","",139.7085483,35.77483277,TRUE
13117001500,13117,"15","いねつけじょうあと","稲付城跡","北区 赤羽西一丁目","[古墳時代][奈良時代][中世]","集落・城館","[中世]空堀　[古墳時代][奈良時代]住居址　[中世]竪穴状遺構　溝","土師器　須恵器　陶器",139.7193629,35.77558484,TRUE
13117001600,13117,"16","いねつけこうえんいせき","稲付公園遺跡","北区 赤羽西三丁目","[古墳時代]","集落","[古墳時代]住居址","土師器",139.7180629,35.76966832,TRUE
13117001900,13117,"19","じゅうじょうだいいせきぐん","十条台遺跡群","北区 中十条一丁目　 中十条二丁目　 中十条三丁目　 王子本町一丁目　 王子本町二丁目　 王子本町三丁目","[旧石器時代][縄文時代][弥生時代][古墳時代][奈良時代][平安時代][近世]","集落・その他の墓","[縄文時代]住居　[弥生時代][古墳時代]住居址　方形周溝墓　[弥生時代]環濠　方形周溝墓　[古墳時代]周溝　溝址　[奈良時代]住居址　[近世]溝","縄文土器　石斧　弥生土器　土師器　須恵器　人骨　鉄製品　土製品",139.7293239,35.7586086,TRUE
13117002000,13117,"20","ふじづかこふん","富士塚古墳","北区 中十条二丁目","[古墳時代]","古墳","円墳","",139.725307,35.76289895,TRUE
13117002200,13117,"22","おうじいなりうらこふん","王子稲荷裏古墳","北区 王子本町二丁目","[古墳時代]","古墳","","人骨",139.7328975,35.75601366,TRUE
13117002400,13117,"24","よもとぎいなりこふん","四本木稲荷古墳","北区 滝野川三丁目","[古墳時代]","古墳","円墳","",139.7291601,35.74960878,TRUE
13117002500,13117,"25","たきのがわはちまんしゃうらかいづか","滝野川八幡社裏貝塚","北区 滝野川五丁目","[縄文時代（後期〜晩期）][古墳時代]","貝塚・集落","[縄文時代]住居　[古墳時代]住居","縄文土器　磨斧　剥片　土師器",139.7262419,35.74818774,TRUE
13117002600,13117,"26","たきのがわこふん","滝野川古墳","北区 滝野川三丁目","[古墳時代]","古墳","円墳","土師器　陶磁器",139.7302587,35.74782551,TRUE
13117002700,13117,"27","にしがはらいせきぐん","西ヶ原遺跡群","北区 西ヶ原一丁目　 西ヶ原二丁目　 西ヶ原三丁目　 上中里一丁目　 王子一丁目","[旧石器時代][縄文時代][弥生時代][古墳時代][奈良時代][平安時代][中世][近世]","集落・貝塚・その他の墓・城館","[縄文時代]住居址　土坑　ピット群　土壙墓　墓壙　貝塚　[弥生時代]住居址　土坑　溝址　方形周溝墓　環濠　[弥生時代][古墳時代]方形周溝墓　[古墳時代]住居址　土坑　溝址　古墳　[奈良時代][平安時代]住居址　掘立柱建物址　ピット　土坑　溝　正倉大溝　溝址　[中世][近世]溝址　土坑　[近世]建物　ピット土坑　地下式土坑　井戸　溝　区画溝　道路　土壙墓群　柵列　集石　特殊埋葬遺構","掻器　彫器　縄文土器　打斧　磨斧　石鏃　抉入石器　石器　ヤス状鹿角製品　耳飾　土板　埋葬人骨　動物遺存体　石皿　磨石　凹石　敲石　石核　大珠　骨角器　弥生土器　石皿　磨石　敲石　滑石製玉　土師器　須恵器　支脚　砥石　紡錘車　土錘　羽口　土玉　鉄製品　陶磁器類　土製品　鉄製品　銭貨　鳥獣魚骨　貝　剥片石器",139.7428408,35.74611874,TRUE
13117002800,13117,"28","かっちゅうづかこふん","甲胄塚古墳","北区 上中里一丁目","[古墳時代]","古墳","","",139.7459307,35.74667603,TRUE
13117002900,13117,"29","むさしのくにとしまぐんがあと","武蔵国豊島郡衙跡","北区 西ケ原二丁目　 上中里一丁目","[古墳時代][奈良時代][平安時代]","官衙","[古墳時代][奈良時代][平安時代]掘立柱建物　井戸　溝　[古墳時代][奈良時代]土坑","土師器　須恵器　円面硯　鉄器",139.7431154,35.74664817,TRUE
13117003000,13117,"30","なかざといせき","中里遺跡","北区 上中里二丁目　東田端一丁目　東田端二丁目","[縄文時代（早期〜後期）][弥生時代][古墳時代][奈良時代][平安時代][中世][近世]","包蔵地・貝塚","[縄文時代]集石　貝塚　木枠付土坑　杭列　炉址　木道　焚き火跡　波食台　[奈良時代][平安時代][中世]掘立柱建物　土坑　道路状遺構　杭列　[近世]旧河道","縄文土器　石斧　石皿　石棒　独木舟　石器　貝製品　耳栓　弥生土器　土師器　須恵器　埴輪　瓦　陶磁器　煙管　木簡　木製品　銭貨",139.7547197,35.74386169,TRUE
13117003100,13117,"31","たばたちょういせき","田端町遺跡","北区 中里一丁目　 中里二丁目　 中里三丁目　 田端三丁目　 田端四丁目","[弥生時代][古墳時代][奈良時代][平安時代][中世]","集落","[弥生時代]住居　[古墳時代]土坑　溝　土師器焼成遺構　[奈良時代]井戸","弥生土器　土師器　須恵器　陶器　板碑",139.7523851,35.73773108,TRUE
13117003200,13117,"32","たばたふどうさかいせき","田端不動坂遺跡","北区 田端一丁目","[縄文時代（前期）][弥生時代（中期〜後期）][古墳時代][奈良時代][平安時代][中世][近世][近代]","集落","[縄文時代]住居址　[弥生時代][古墳時代]住居址　方形周溝墓　掘立柱建物址　土坑　[奈良時代][平安時代]住居址　掘立柱建物址　ピット　道路状遺構　溝址　[平安時代]住居址　柵列　[中世][近世]道路址　溝址　[近代]胞衣埋納遺構　[時代不明]住居　土坑　溝","縄文土器　弥生土器　土師器　須恵器　陶器（灰釉）　支脚　石皿　鉄器　帯金具　青銅鏡　銅鏃　玉類",139.7624359,35.73559222,TRUE
13117003500,13117,"35","しもいせき","志茂遺跡","北区 志茂三丁目　 志茂四丁目","[弥生時代][古墳時代][奈良時代][平安時代]","集落","[弥生時代][古墳時代]方形周溝墓　土坑　溝址　[奈良時代][平安時代]溝址","弥生土器　土師器 須恵器",139.7345606,35.7798977,TRUE
13117003600,13117,"36","とみんごるふじょういせき","都民ゴルフ場遺跡","北区 豊島五丁目","[古墳時代]","包蔵地","[古墳時代]焚火","土師器",139.7584558,35.7674187,TRUE
13117003900,13117,"39","しもじゅうじょういせき","下十条遺跡","北区 十条台一丁目　 十条台二丁目　 滝野川四丁目","[縄文時代][古墳時代][奈良時代][平安時代][中世][近世]","集落","[縄文時代]陥穴　[奈良時代][平安時代]住居址　柵列　[近世]溝　柵列","縄文土器　土師器　須恵器　石製品　鉄製品",139.7227056,35.75462096,TRUE
13117004000,13117,"40","なかざとはけうえ","中里峽上遺跡","北区 中里三丁目　 田端六丁目　 上中里一丁目　 西ケ原一丁目","[縄文時代][弥生時代][古墳時代][奈良時代][平安時代][近世]","集落・貝塚","[弥生時代]住居址　[古墳時代][奈良時代]住居址　掘立柱建物　溝址　特殊遺構　[平安時代]掘立柱建物　住居址　土坑","弥生土器　土師器　須恵器　砥石　鉄製品　瓦　鉄滓",139.7518616,35.74189019,TRUE
13117004100,13117,"41","たばたにしだいどおりいせき","田端西台通遺跡","北区 田端二丁目　 田端三丁目　 田端四丁目　 田端五丁目　 田端六丁目","[縄文時代][弥生時代][古墳時代][奈良時代][平安時代][中世][近世]","集落・貝塚・古墳","[縄文時代]堅穴建物址　土坑　[弥生時代]堅穴建物址　方形周溝墓　[古墳時代]堅穴建物址　円墳　住居址　[奈良時代][平安時代]堅穴建物址　掘立柱建物址　住居址　[平安時代]土坑　溝　畝[中世]溝址","縄文土器　弥生土器　土師器　須恵器　灰釉陶器　金属製品　石製品　土製器　銭貨　陶磁器　ガラス製品　石器　鉄製品　帯金具　ガラス小玉　鉄釧",139.7576637,35.73804458,TRUE
13117004102,13117,"41-2","たばたにしだいどおり1ごうこふん","田端西台通1号古墳","北区 田端三丁目","[古墳時代]","古墳","[古墳時代]周溝","土師器",139.7558398,35.73777288,TRUE
13117004103,13117,"41-3","たばたにしだいどおり2ごうこふん","田端西台通2号古墳","北区 田端三丁目","[古墳時代]","古墳","[古墳時代]周溝","",139.7557883,35.73759174,TRUE
13117004104,13117,"41-4","たばたにしだいどおり3ごうこふん","田端西台通3号古墳","北区 田端三丁目","[古墳時代]","古墳","[古墳時代]周溝","",139.7559428,35.73742453,TRUE
13117004105,13117,"41-5","たばたにしだいどおり4ごうこふん","田端西台通4号古墳","北区 田端三丁目","[古墳時代]","古墳","[古墳時代]周溝","",139.7560286,35.73722946,TRUE
13117004200,13117,"42","としまばんばいせき","豊島馬場遺跡","北区 豊島八丁目　 王子五丁目","[弥生時代（後期）][古墳時代][奈良時代][平安時代][中世][近世]","集落","[弥生時代][古墳時代]住居　掘立柱建物　土坑　溝　方形周溝墓　ピット　[古墳時代]井戸","弥生土器　土師器　須恵器　土製品　管玉　勾玉　ガラス小玉鋳型　陶磁器　木製品　石臼",139.7394357,35.76833798,TRUE
13117004300,13117,"43","みやぼりきたいせき","宮堀北遺跡","北区 神谷三丁目　 志茂三丁目","[古墳時代][奈良時代][平安時代]","包蔵地","[古墳時代][奈良時代][平安時代]土坑　溝　河道","土師器　須恵器　砥石　土錘　土玉　勾玉　木製品",139.7347322,35.77591466,TRUE
13117004500,13117,"45","じゅうじょうだいこふんぐん","十条台古墳群","北区 中十条二丁目　 中十条三丁目","[古墳時代]","古墳群","円墳　[古墳時代]周溝","土師器　須恵器　円筒埴輪",139.725513,35.76342827,TRUE
13117004600,13117,"46","あすかやまこふんぐん","飛鳥山古墳群","北区 西ヶ原二丁目　 王子一丁目","[古墳時代]","古墳群","円墳　[古墳時代]主体部　周溝","縄文土器　弥生土器　土師器　須恵器",139.7391672,35.75018686,TRUE
13117004800,13117,"48","ふくろにしうらいせき","袋西浦遺跡","北区 赤羽北二丁目","[縄文時代（中期）][古墳時代][中世][近世]","包蔵地","[古墳時代][中世]ピット　溝　[中世]井戸　土坑　[近世]土坑","縄文土器　打斧　土師器　須恵器　陶器　石製品　板碑　木製品　金属製品　ガラス製品　玩具　人形　銭貨",139.7047223,35.78487154,TRUE
13117004900,13117,"49","みちあいいせき","道合遺跡","北区 赤羽台一丁目　 赤羽台二丁目","[縄文時代（早期〜前期・後期）][弥生時代][古墳時代][奈良時代][平安時代][近世]","集落","[縄文時代]土坑　ピット　小貝塚　[弥生時代][古墳時代]住居址　土坑　ピット　[奈良時代][平安時代]住居址　土坑　溝址　[近世]溝址","縄文土器　石器　弥生土器　土師器　須恵器　陶磁器類",139.7145221,35.77628119,TRUE
13119000100,13119,"1","なりますいっちょうめいせき","成増一丁目遺跡","板橋区 成増一丁目","[縄文時代（早期〜中期）][弥生時代（後期）][古墳時代]","包蔵地・集落","[縄文時代]住居　土坑　埋甕　[弥生時代][古墳時代]住居　倉庫","縄文土器　石器　弥生土器　土師器　土製勾玉",139.6267984,35.77824962,TRUE
13119000500,13119,"5","","板橋区No.5遺跡","板橋区 成増四丁目","[弥生時代（後期）][古墳時代]","包蔵地","","弥生土器　土師器",139.6352098,35.78585321,TRUE
13119000600,13119,"6","","板橋区No.6遺跡","板橋区 成増四丁目","[縄文時代][弥生時代][古墳時代]","包蔵地","","縄文土器　磨斧　弥生土器　土師器　須恵器",139.6367891,35.78624312,TRUE
13119000700,13119,"7","すがわらじんじゃだいちうえいせき","菅原神社台地上遺跡","板橋区 成増四丁目　 成増五丁目","[旧石器時代][縄文時代（前期）][弥生時代（後期）][古墳時代][平安時代][近世]","集落・古墳","[旧石器時代]ブロック　礫群　[縄文時代]住居　炉穴　焼土　土坑　墓壙　[弥生時代]住居　掘立柱建物　ピット　焼土　土坑　[古墳時代]円墳　方形周溝墓　[平安時代]住居　[近世]土坑　溝状遺構","ナイフ形石器　台形様石器　剥片　礫　縄文土器　磨斧　石鏃　石皿　台石　弥生土器　土師器　須恵器　土製玉類　ガラス小玉　けつ状耳飾　陶磁器　鉄製品　ガラス製品",139.6316049,35.78356942,TRUE
13119000800,13119,"8","なりますてんじんわきいせき","成増天神脇遺跡","板橋区 成増四丁目　 成増五丁目","[旧石器時代][縄文時代（早期・中期〜後期）][弥生時代（後期）][古墳時代][奈良時代][近世]","包蔵地","","縄文土器　弥生土器",139.6324976,35.78490628,TRUE
13119001200,13119,"12","あかつかかみやつみなみいせき","赤塚上谷津南遺跡","板橋区 赤塚二丁目","[縄文時代][弥生時代（後期）][古墳時代]","集落","[弥生時代]住居","",139.6414926,35.77331944,TRUE
13119001300,13119,"13","","板橋区No.13遺跡","板橋区 赤塚二丁目　 赤塚六丁目","[縄文時代][古墳時代]","包蔵地","","",139.6412523,35.776467,TRUE
13119001600,13119,"16","あかつかいなりごしいせき","赤塚稲荷越遺跡","板橋区 赤塚三丁目","[縄文時代(中期)][古墳時代][平安時代][近世]","包蔵地","[縄文時代](陥穴状)土坑　[平安時代]土坑　[近世]溝　土坑","縄文土器(中)　打製石斧　円筒埴輪(普通・朝顔形)　形象埴輪(人物・馬形)　土師器　土師質土器　須恵器　陶器　炻器　近世土器　磁器　銅銭",139.6372354,35.78025504,TRUE
13119001700,13119,"17","","板橋区No.17遺跡","板橋区 成増四丁目　 赤塚三丁目","[縄文時代][古墳時代]","包蔵地","","縄文土器　土師器　須恵器",139.6358965,35.78033859,TRUE
13119001800,13119,"18","","板橋区No.18遺跡","板橋区 赤塚四丁目","[縄文時代][弥生時代][古墳時代]","包蔵地","","縄文土器　弥生土器",139.6399477,35.78334661,TRUE
13119002100,13119,"21","あかつかかぶらがやときたいせき","赤塚蕪ヶ谷戸北遺跡","板橋区 赤塚四丁目","[弥生時代（後期）][古墳時代]","包蔵地","[弥生時代]住居","弥生土器　土師器",139.6386087,35.78479488,TRUE
13119002200,13119,"22","あかつかひかわじんじゃほっぽういせき","赤塚氷川神社北方遺跡","板橋区 赤塚四丁目","[旧石器時代][縄文時代（晩期）][弥生時代（中期〜後期）][古墳時代][奈良時代][近世]","包蔵地・集落","[弥生時代][古墳時代]住居","ナイフ形石器　縄文土器　石器　弥生土器　土師器　須恵器",139.6390894,35.78652162,TRUE
13119002400,13119,"24","（抹消）","板橋区No.24遺跡","板橋区 赤塚四丁目　 赤塚五丁目","[縄文時代（後期）][弥生時代][古墳時代]","包蔵地","","",139.6415956,35.78136913,TRUE
13119002500,13119,"25","（抹消）","板橋区No.25遺跡","板橋区 赤塚五丁目","[古墳時代]","包蔵地","","土師器",139.6422823,35.7831795,TRUE
13119002600,13119,"26","（抹消）","赤塚城址貝塚","板橋区 赤塚五丁目","[縄文時代（前期・後期〜晩期）][弥生時代（後期）][古墳時代]","包蔵地・貝塚","[古墳時代？]木道","縄文土器　石器　石棒　土偶　牙玉　貝輪　弥生土器　土師器　加工木材",139.6433122,35.78432141,TRUE
13119002800,13119,"28","あかつかじょうし","赤塚城址","板橋区 赤塚四丁目　 赤塚五丁目","[縄文時代（早期〜晩期）][弥生時代（後期）][古墳時代][中世]","包蔵地・城館","[古墳時代]木道　[中世]堀　曲輪","縄文土器　石器　加工木材土師器",139.6433122,35.78259462,TRUE
13119002900,13119,"29","あかつかしのがやといせき","赤塚篠ヶ谷戸遺跡","板橋区 赤塚二丁目　 赤塚六丁目","[縄文時代（後期）][弥生時代（後期）][古墳時代]","集落","[弥生時代]住居","弥生土器",139.6442735,35.7745172,TRUE
13119003100,13119,"31","","板橋区No.31遺跡","板橋区 赤塚七丁目","[縄文時代（前期）][弥生時代][古墳時代]","包蔵地・集落","","縄文土器　石器　弥生土器　土師器",139.6484707,35.77630335,TRUE
13119003300,13119,"33","しょうげついんけいだい・だいもん・あかつかしもじけばんじょうめんいせき","松月院境内・大門・赤塚下寺家番匠免遺跡","板橋区 赤塚五丁目　 赤塚六丁目　 赤塚七丁目　 赤塚八丁目　 大門","[旧石器時代][縄文時代（早期〜晩期）][弥生時代（中期〜後期）][古墳時代][奈良時代][平安時代][中世][近世]","包蔵地・集落","[旧石器時代]ブロック　礫群　[縄文時代]住居　炉穴　[弥生時代]住居　方形周溝墓　[古墳時代]住居　方形周溝墓　[奈良時代][平安時代]住居　[中世]土坑　地下式土壙　ピット　[近世]土坑","ナイフ形石器　石刃　角錐状石器　掻器　縄文土器　石器　弥生土器　土師器　須恵器　紡錘車　青銅環　陶磁器　カワラケ　板碑　五輪塔",139.6476467,35.78156758,TRUE
13119003400,13119,"34","","板橋区No.34遺跡","板橋区 赤塚八丁目","[縄文時代][弥生時代][古墳時代][中世]","包蔵地","","縄文土器　石器　弥生土器　土師器　須恵器",139.6455524,35.78424134,TRUE
13119003500,13119,"35","","板橋区No.35遺跡","板橋区 大門","[縄文時代][弥生時代（後期）][古墳時代][平安時代]","包蔵地・集落","[弥生時代]住居","縄文土器　弥生土器　土師器　須恵器",139.6482647,35.78399068,TRUE
13119003700,13119,"37","","板橋区No.37遺跡","板橋区 四葉一丁目","[古墳時代]","包蔵地","","須恵器",139.6519446,35.77805671,TRUE
13119003800,13119,"38","よつばみやまえいせき","四葉宮前遺跡","板橋区 四葉一丁目","[縄文時代（早期〜晩期）][弥生時代（後期）][古墳時代][平安時代][近世]","包蔵地・集落","[古墳時代]住居","土師器　須恵器",139.652082,35.7793101,TRUE
13119003900,13119,"39","よつばちくいせき","四葉地区遺跡","板橋区 四葉二丁目","[縄文時代（早期〜晩期）][弥生時代（後期）][古墳時代][奈良時代][平安時代][中世][近世]","包蔵地","[縄文時代]住居　[弥生時代][古墳時代]住居　焼土　[奈良時代][平安時代]住居　竪穴状遺構　[中世][近世]地下式土坑　溝　道路","縄文土器　有舌尖頭器　弥生土器　土師器　須恵器　土玉　臼玉",139.6513027,35.78112479,TRUE
13119004000,13119,"40","よつばちくいせき","四葉地区遺跡","板橋区 四葉二丁目","[旧石器時代][縄文時代（早期〜中期）][弥生時代（後期）][古墳時代][奈良時代][平安時代][中世][近世]","包蔵地","[弥生時代]環濠　住居　[平安時代]住居　土坑　溝　井戸　[近世]土壙墓　[時代不明]ピット","弥生土器　土師器　須恵器　釘　金銅製観音立像　銭貨",139.653294,35.78173754,TRUE
13119004100,13119,"41","おきやま・よつばちくいせき","沖山・四葉地区遺跡","板橋区 四葉二丁目","[縄文時代][弥生時代（中期〜後期）][古墳時代][平安時代][中世][近世]","包蔵地・集落","[弥生時代]環濠　住居　ピット　土坑　[古墳時代]住居　[奈良時代][平安時代]住居　[中世]段切り　溝状遺構　[近世]畝　土壙墓","縄文土器　打斧　弥生土器　土師器　須恵器　銅製?帯　板碑　陶磁器　くし　簪　人形　銭貨　胞衣壺",139.6520237,35.78315798,TRUE
13119004200,13119,"42","よつばちくいせき","四葉地区遺跡","板橋区 四葉二丁目　 徳丸八丁目","[旧石器時代][縄文時代（早期〜晩期）][弥生時代（後期）][古墳時代][奈良時代][平安時代][中世][近世]","包蔵地・集落","[旧石器時代]ブロック　炭化物集中　[縄文時代]住居　陥し穴　[弥生時代][古墳時代]環濠　住居　方形周溝墓　円形周溝墓　[古墳時代]土坑　[奈良時代][平安時代]住居　土坑　地下式土坑　[中世][近世]段切り　溝　[近世]地下室　ゴミ穴　溝　[時代不明]井戸　火葬墓","ナイフ形石器　細石刃　掻器　抉入石器　敲石　石核　縄文土器　打斧　磨斧　局部磨斧　有舌尖頭器　石鏃　楔形石器　石皿　磨石　スタンプ形石器　敲石　土製品　弥生土器　磨斧　石包丁　石皿　台石　土師器　須恵器　鉄鏃　陶磁器　銭貨　獣骨",139.6548046,35.7812362,TRUE
13119004300,13119,"43","","板橋区No.43遺跡","板橋区 徳丸一丁目","[縄文時代][弥生時代][古墳時代]","包蔵地・集落","[縄文時代]住居　[古墳時代]住居","弥生土器　土師器",139.6661239,35.77142733,TRUE
13119004500,13119,"45","","板橋区No.45遺跡","板橋区 徳丸一丁目","[弥生時代][古墳時代]","包蔵地","","土師器",139.6652656,35.77346077,TRUE
13119004600,13119,"46","","板橋区No.46遺跡","板橋区 徳丸二丁目","[縄文時代][弥生時代][古墳時代]","包蔵地・集落","","縄文土器　弥生土器　土師器",139.661489,35.77298723,TRUE
13119004700,13119,"47","","板橋区No.47遺跡","板橋区 徳丸二丁目　 徳丸三丁目","[縄文時代][弥生時代][古墳時代]","包蔵地","[時代不明]住居","縄文土器　石鏃　弥生土器　土師器　須恵器",139.6594291,35.77354434,TRUE
13119004900,13119,"49","とくまるきょうむねいせき","徳丸京宗遺跡","板橋区 徳丸四丁目","[縄文時代][弥生時代][古墳時代]","包蔵地","","縄文土器　弥生土器　土師器",139.6539359,35.77298723,TRUE
13119005000,13119,"50","","板橋区No.50遺跡","板橋区 徳丸三丁目　 徳丸四丁目","[縄文時代][弥生時代][古墳時代]","包蔵地・集落","[縄文時代]住居　[弥生時代]住居　[古墳時代]住居","縄文土器　弥生土器　土師器",139.6557212,35.77451925,TRUE
13119005100,13119,"51","とくまるもりのきいせき","徳丸森木遺跡","板橋区 徳丸五丁目　 四葉一丁目","[旧石器時代][縄文時代（早期〜中期・晩期）][弥生時代（後期）][古墳時代]","包蔵地・集落","[旧石器時代]ブロック　[縄文時代]土坑　[弥生時代]住居　[古墳時代]方形周溝墓　[時代不明]土坑　溝","剥片　縄文土器　石鏃　弥生土器　石器　土師器",139.6539016,35.77900372,TRUE
13119005200,13119,"52","とくまるいしかわ／とくまるみつわいせき","徳丸石川／徳丸三ツ和遺跡","板橋区 徳丸五丁目","[縄文時代（早期〜晩期）][弥生時代（後期）][古墳時代][中世][近世]","包蔵地・集落・城館","[縄文時代]土坑　[弥生時代]住居　円形周溝墓　特殊遺構　[古墳時代]住居　[中世]堀","角錐状石器　縄文土器　石器　耳飾　弥生土器　土師器　陶磁器",139.6565108,35.77864163,TRUE
13119005300,13119,"53","とくまるたかやまかいづか","徳丸高山貝塚","板橋区 徳丸六丁目","[縄文時代（早期〜後期）][弥生時代（後期）][古墳時代][奈良時代][平安時代][近世]","包蔵地・集落","[旧石器時代]礫群　[縄文時代]住居　[古墳時代][平安時代]住居","角錐状石器　縄文土器　石器　石包丁",139.6624846,35.77861377,TRUE
13119005400,13119,"54","とくまるひがし／とくまるきたのじんじゃいせき","徳丸東／徳丸北野神社遺跡","板橋区 徳丸六丁目","[縄文時代（早期〜晩期）][弥生時代（後期）][古墳時代][奈良時代][平安時代][近世]","包蔵地・集落","[縄文時代]土坑　埋甕　[弥生時代]住居　方形周溝墓　壺棺　[古墳時代]住居　[奈良時代]住居　[時代不明]住居　掘立柱建物　ピット","ナイフ形石器　楔形石器　彫器　石核　縄文土器　打斧　磨斧　礫器　石鏃　削器　磨石　抉入石器　凹石　敲石　土製品　弥生土器　砥石　土師器　須恵器　土錘　土玉　支脚　鞴口　土製鏡　青銅環　石製品",139.6597037,35.77872518,TRUE
13119005500,13119,"55","","板橋区No.55遺跡","板橋区 徳丸六丁目　 徳丸七丁目","[縄文時代][弥生時代][古墳時代]","包蔵地","[時代不明]住居","縄文土器　石器　弥生土器　土師器　砥石",139.660871,35.78003427,TRUE
13119005600,13119,"56","つじやまかいづか","辻山貝塚","板橋区 徳丸七丁目","[縄文時代（後期）][弥生時代][古墳時代][平安時代]","包蔵地・集落・貝塚","[時代不明]住居","縄文土器　弥生土器　土師器",139.6626906,35.78098126,TRUE
13119005700,13119,"57","","板橋区No.57遺跡","板橋区 徳丸七丁目　 徳丸八丁目","[縄文時代（中期）][弥生時代（後期）][古墳時代][奈良時代][平安時代][中世][近世]","包蔵地・集落","","縄文土器　弥生土器　土師器",139.6586051,35.78073058,TRUE
13119005800,13119,"58","にしだいごとうだいせき","西台後藤田遺跡","板橋区 西台一丁目　 西台三丁目　 西台四丁目　 若木二丁目","[旧石器時代][縄文時代（早期〜後期）][弥生時代（後期）][古墳時代][奈良時代][平安時代][近世]","包蔵地・集落・貝塚","","縄文土器",139.670392,35.77291791,TRUE
13119005900,13119,"59","","板橋区No.59遺跡","板橋区 西台一丁目","[縄文時代（前期）][弥生時代][古墳時代]","包蔵地","","縄文土器　弥生土器　土師器",139.6728982,35.77634402,TRUE
13119006300,13119,"63","ごたんだいせき","五段田遺跡","板橋区 西台三丁目","[旧石器時代][縄文時代（中期〜晩期）][弥生時代（後期）][古墳時代][奈良時代][平安時代][中世][近世]","包蔵地・集落・墳墓","[旧石器時代]ブロック　[縄文時代]住居　炉穴　土坑　[弥生時代]住居　方形周溝墓　土坑　溝　[奈良時代][平安時代]溝　[中世]掘立柱建物　竪穴状遺構　地下式土壙　段切状遺構　[近世]土坑　井戸　畝状遺構　道路状遺構","ナイフ形石器　石刃　剥片　縄文土器　石器　弥生土器　土師器　埴輪　陶磁器　土師質土器　金属製品　銭貨",139.6682525,35.77443569,TRUE
13119006400,13119,"64","","板橋区No.64遺跡","板橋区 西台三丁目","[縄文時代][弥生時代][古墳時代]","包蔵地","","縄文土器　弥生土器　土師器",139.6700721,35.77566128,TRUE
13119006600,13119,"66","","板橋区No.66遺跡","板橋区 若木二丁目","[縄文時代][弥生時代][古墳時代][平安時代]","包蔵地","","",139.6725892,35.77080089,TRUE
13119006700,13119,"67","","板橋区No.67遺跡","板橋区 若木一丁目　 若木二丁目","[縄文時代（後期）][弥生時代][古墳時代]","包蔵地","","",139.6718683,35.76876739,TRUE
